{
"crs":
{ "type": "name", "properties": { "name": "GEOGCS[\"GCS_WGS_1984\",DATUM[\"D_WGS_1984\",SPHEROID[\"WGS_1984\",6378137.0,298.257223563]],PRIMEM[\"Greenwich\",0.0],UNIT[\"Degree\",0.0174532925199433],AUTHORITY[\"EPSG\", 4326]]" } },
"type": "FeatureCollection",
"features": [
{ "type": "Feature", "properties": { "gml_id": "layer_scientific_pt.220342", "Name": "湖北经济学院", "pyname": "hbjjxy", "kind": "A700", "zipcode": "430074", "telephone": "027-81973918", "display_x": "114.4359", "display_y": "30.41811", "side": "R", "address": "杨桥湖大道8", "mpLayer": 0 }, "geometry": { "type": "Point", "coordinates": [ 114.430401180000004, 30.4204573399999987 ] } },
{ "type": "Feature", "properties": { "gml_id": "layer_scientific_pt.220344", "Name": "永安中学", "pyname": "yazx", "kind": "A703", "zipcode": "", "telephone": "", "display_x": "113.94096", "display_y": "30.45515", "side": "L", "address": "永才路", "mpLayer": 0 }, "geometry": { "type": "Point", "coordinates": [ 113.935501439999996, 30.4578175999999985 ] } },
{ "type": "Feature", "properties": { "gml_id": "layer_scientific_pt.220346", "Name": "道观小学", "pyname": "dgxx", "kind": "A702", "zipcode": "", "telephone": "", "display_x": "114.98222", "display_y": "30.87492", "side": "R", "address": "", "mpLayer": 0 }, "geometry": { "type": "Point", "coordinates": [ 114.97698828, 30.8772983299999986 ] } },
{ "type": "Feature", "properties": { "gml_id": "layer_scientific_pt.220350", "Name": "汉阳区好娃娃幼儿园", "pyname": "hyqhwwyey", "kind": "A701", "zipcode": "", "telephone": "13035146148", "display_x": "114.19362", "display_y": "30.56293", "side": "L", "address": "山北湾150", "mpLayer": 0 }, "geometry": { "type": "Point", "coordinates": [ 114.188085720000004, 30.5653400600000005 ] } },
{ "type": "Feature", "properties": { "gml_id": "layer_scientific_pt.220352", "Name": "洪山区永安小学", "pyname": "hsqyaxx", "kind": "A702", "zipcode": "", "telephone": "", "display_x": "114.30659", "display_y": "30.49177", "side": "R", "address": "", "mpLayer": 0 }, "geometry": { "type": "Point", "coordinates": [ 114.301155780000002, 30.4942188200000004 ] } },
{ "type": "Feature", "properties": { "gml_id": "layer_scientific_pt.220358", "Name": "黄陂七中", "pyname": "hpqz", "kind": "A703", "zipcode": "", "telephone": "", "display_x": "114.38767", "display_y": "30.86451", "side": "L", "address": "东堤街", "mpLayer": 0 }, "geometry": { "type": "Point", "coordinates": [ 114.382101419999998, 30.8666626700000002 ] } },
{ "type": "Feature", "properties": { "gml_id": "layer_scientific_pt.220362", "Name": "武汉铁路局干校", "pyname": "whtljgx", "kind": "A709", "zipcode": "", "telephone": "027-86824891", "display_x": "114.34804", "display_y": "30.58575", "side": "L", "address": "徐东大街96", "mpLayer": 0 }, "geometry": { "type": "Point", "coordinates": [ 114.342535979999994, 30.5880926399999993 ] } },
{ "type": "Feature", "properties": { "gml_id": "layer_scientific_pt.220363", "Name": "宏基驾校", "pyname": "hjjx", "kind": "A706", "zipcode": "", "telephone": "", "display_x": "114.4118", "display_y": "30.50737", "side": "R", "address": "珞喻路880附近", "mpLayer": 0 }, "geometry": { "type": "Point", "coordinates": [ 114.406281539999995, 30.5096935100000017 ] } },
{ "type": "Feature", "properties": { "gml_id": "layer_scientific_pt.220366", "Name": "东风中学", "pyname": "dfzx", "kind": "A703", "zipcode": "", "telephone": "", "display_x": "114.41751", "display_y": "30.69529", "side": "L", "address": "南极大道", "mpLayer": 0 }, "geometry": { "type": "Point", "coordinates": [ 114.411965039999998, 30.6975277400000017 ] } },
{ "type": "Feature", "properties": { "gml_id": "layer_scientific_pt.220368", "Name": "消泗乡中心小学", "pyname": "xsxzxxx", "kind": "A702", "zipcode": "", "telephone": "027-84061129", "display_x": "113.7856", "display_y": "30.3199", "side": "L", "address": "消泗正街343", "mpLayer": 0 }, "geometry": { "type": "Point", "coordinates": [ 113.779883699999999, 30.3224571000000012 ] } },
{ "type": "Feature", "properties": { "gml_id": "layer_scientific_pt.220370", "Name": "武汉市人民中学南门", "pyname": "whsrmzxnm", "kind": "A703", "zipcode": "430000", "telephone": "", "display_x": "114.28928", "display_y": "30.56893", "side": "L", "address": "二盛巷93", "mpLayer": 0 }, "geometry": { "type": "Point", "coordinates": [ 114.283843200000007, 30.5713664099999995 ] } },
{ "type": "Feature", "properties": { "gml_id": "layer_scientific_pt.220371", "Name": "仁和会计培训江汉路分校", "pyname": "rhkjpxjhlfx", "kind": "A709", "zipcode": "", "telephone": "027-82750610", "display_x": "114.29013", "display_y": "30.58212", "side": "L", "address": "港澳中心10层", "mpLayer": 0 }, "geometry": { "type": "Point", "coordinates": [ 114.284695499999998, 30.5845542500000001 ] } },
{ "type": "Feature", "properties": { "gml_id": "layer_scientific_pt.220372", "Name": "音乐种子器乐培训中心", "pyname": "yyzzqypxzx", "kind": "A709", "zipcode": "", "telephone": "13260653813", "display_x": "114.15788", "display_y": "30.49951", "side": "R", "address": "东兴路2号8栋附3", "mpLayer": 0 }, "geometry": { "type": "Point", "coordinates": [ 114.15225006, 30.5018754799999989 ] } },
{ "type": "Feature", "properties": { "gml_id": "layer_scientific_pt.220373", "Name": "利成驾校第二训练场", "pyname": "lcjxdexlc", "kind": "A706", "zipcode": "", "telephone": "18986285321", "display_x": "114.15404", "display_y": "30.48839", "side": "L", "address": "郭蔡路", "mpLayer": 0 }, "geometry": { "type": "Point", "coordinates": [ 114.148401120000003, 30.4907526900000008 ] } },
{ "type": "Feature", "properties": { "gml_id": "layer_scientific_pt.220375", "Name": "湖北省现代技术学校", "pyname": "hbsxdjsxx", "kind": "A708", "zipcode": "", "telephone": "027-87803205", "display_x": "114.39861", "display_y": "30.50305", "side": "L", "address": "民族大道26", "mpLayer": 0 }, "geometry": { "type": "Point", "coordinates": [ 114.393079080000007, 30.505369009999999 ] } },
{ "type": "Feature", "properties": { "gml_id": "layer_scientific_pt.220379", "Name": "启蒙艺术幼儿园", "pyname": "qmysyey", "kind": "A701", "zipcode": "", "telephone": "13986298135", "display_x": "114.44262", "display_y": "30.43181", "side": "R", "address": "", "mpLayer": 0 }, "geometry": { "type": "Point", "coordinates": [ 114.437134259999993, 30.4341641100000011 ] } },
{ "type": "Feature", "properties": { "gml_id": "layer_scientific_pt.220380", "Name": "武汉市江夏城建市政公用设计院", "pyname": "whsjxcjszgysjy", "kind": "A880", "zipcode": "", "telephone": "", "display_x": "114.3342", "display_y": "30.36287", "side": "R", "address": "江夏大道181", "mpLayer": 0 }, "geometry": { "type": "Point", "coordinates": [ 114.328737000000004, 30.3652994000000014 ] } },
{ "type": "Feature", "properties": { "gml_id": "layer_scientific_pt.220383", "Name": "起点少儿书画苑", "pyname": "qdseshy", "kind": "A709", "zipcode": "", "telephone": "15337167427", "display_x": "114.30772", "display_y": "30.34504", "side": "R", "address": "长乐路", "mpLayer": 0 }, "geometry": { "type": "Point", "coordinates": [ 114.302297519999996, 30.3475194899999998 ] } },
{ "type": "Feature", "properties": { "gml_id": "layer_scientific_pt.220387", "Name": "七星欢欢幼儿园", "pyname": "qxhhyey", "kind": "A701", "zipcode": "", "telephone": "027-86821106", "display_x": "114.33797", "display_y": "30.58128", "side": "R", "address": "武汉理工大学友谊小区附近", "mpLayer": 0 }, "geometry": { "type": "Point", "coordinates": [ 114.332481720000004, 30.5836428600000012 ] } },
{ "type": "Feature", "properties": { "gml_id": "layer_scientific_pt.220388", "Name": "启明星幼儿园", "pyname": "qmxyey", "kind": "A701", "zipcode": "", "telephone": "", "display_x": "114.32974", "display_y": "30.58164", "side": "R", "address": "武车七村附近", "mpLayer": 0 }, "geometry": { "type": "Point", "coordinates": [ 114.324264360000001, 30.5840178499999986 ] } },
{ "type": "Feature", "properties": { "gml_id": "layer_scientific_pt.220391", "Name": "武昌区七色花幼儿园", "pyname": "wcqqshyey", "kind": "A701", "zipcode": "430000", "telephone": "027-88733286", "display_x": "114.29579", "display_y": "30.508", "side": "R", "address": "白沙洲大道301附66", "mpLayer": 0 }, "geometry": { "type": "Point", "coordinates": [ 114.290357580000006, 30.5104527499999989 ] } },
{ "type": "Feature", "properties": { "gml_id": "layer_scientific_pt.220395", "Name": "武汉市汉南育才幼儿园", "pyname": "whshnycyey", "kind": "A701", "zipcode": "430090", "telephone": "027-84856900", "display_x": "114.0839", "display_y": "30.31605", "side": "L", "address": "碧栖路", "mpLayer": 0 }, "geometry": { "type": "Point", "coordinates": [ 114.078184019999995, 30.3184135400000017 ] } },
{ "type": "Feature", "properties": { "gml_id": "layer_scientific_pt.220401", "Name": "华中师大－政治学研究院", "pyname": "hzsd-zzxyjy", "kind": "A880", "zipcode": "", "telephone": "", "display_x": "114.35919", "display_y": "30.51965", "side": "R", "address": "珞喻路152号华中师范大学", "mpLayer": 0 }, "geometry": { "type": "Point", "coordinates": [ 114.353683200000006, 30.5220036599999993 ] } },
{ "type": "Feature", "properties": { "gml_id": "layer_scientific_pt.220407", "Name": "东风汽车公司技师学院", "pyname": "dfqcgsjsxy", "kind": "A708", "zipcode": "", "telephone": "", "display_x": "114.19897", "display_y": "30.46436", "side": "L", "address": "汉纸中路197", "mpLayer": 0 }, "geometry": { "type": "Point", "coordinates": [ 114.193459619999999, 30.4668100399999986 ] } },
{ "type": "Feature", "properties": { "gml_id": "layer_scientific_pt.220408", "Name": "东风汽车公司高级技工学校武汉分校", "pyname": "dfqcgsgjjgxxwhfx", "kind": "A708", "zipcode": "", "telephone": "027-84282710", "display_x": "114.19897", "display_y": "30.46436", "side": "L", "address": "汉纸中路197", "mpLayer": 0 }, "geometry": { "type": "Point", "coordinates": [ 114.193459619999999, 30.4668100399999986 ] } },
{ "type": "Feature", "properties": { "gml_id": "layer_scientific_pt.220410", "Name": "练武小学", "pyname": "lwxx", "kind": "A702", "zipcode": "", "telephone": "", "display_x": "113.93797", "display_y": "30.64958", "side": "L", "address": "", "mpLayer": 0 }, "geometry": { "type": "Point", "coordinates": [ 113.932501380000005, 30.6521872699999989 ] } },
{ "type": "Feature", "properties": { "gml_id": "layer_scientific_pt.220411", "Name": "育苗幼儿园", "pyname": "ymyey", "kind": "A701", "zipcode": "", "telephone": "15927552989", "display_x": "114.07507", "display_y": "30.30692", "side": "R", "address": "薇湖路407", "mpLayer": 0 }, "geometry": { "type": "Point", "coordinates": [ 114.069357179999997, 30.3092926200000008 ] } },
{ "type": "Feature", "properties": { "gml_id": "layer_scientific_pt.220415", "Name": "武汉工程大学东区", "pyname": "whgcdxdq", "kind": "A700", "zipcode": "", "telephone": "", "display_x": "114.44152", "display_y": "30.45926", "side": "L", "address": "", "mpLayer": 0 }, "geometry": { "type": "Point", "coordinates": [ 114.436028339999993, 30.4616047499999993 ] } },
{ "type": "Feature", "properties": { "gml_id": "layer_scientific_pt.220417", "Name": "湖北程远艺术设计学院", "pyname": "hbcyyssjxy", "kind": "A709", "zipcode": "", "telephone": "", "display_x": "114.33416", "display_y": "30.5325", "side": "R", "address": "武珞路282号思特大厦9层", "mpLayer": 0 }, "geometry": { "type": "Point", "coordinates": [ 114.328682639999997, 30.5348876999999987 ] } },
{ "type": "Feature", "properties": { "gml_id": "layer_scientific_pt.220418", "Name": "小神童艺术幼儿园", "pyname": "xstysyey", "kind": "A701", "zipcode": "", "telephone": "027-83252619", "display_x": "114.14326", "display_y": "30.6198", "side": "R", "address": "田园南路52", "mpLayer": 0 }, "geometry": { "type": "Point", "coordinates": [ 114.13758258, 30.6220998599999987 ] } },
{ "type": "Feature", "properties": { "gml_id": "layer_scientific_pt.220419", "Name": "法泗中学", "pyname": "fszx", "kind": "A703", "zipcode": "", "telephone": "", "display_x": "114.17074", "display_y": "30.15892", "side": "L", "address": "法泗洲路22", "mpLayer": 0 }, "geometry": { "type": "Point", "coordinates": [ 114.165176220000006, 30.1613581400000008 ] } },
{ "type": "Feature", "properties": { "gml_id": "layer_scientific_pt.220420", "Name": "武汉市江夏区法泗小学", "pyname": "whsjxqfsxx", "kind": "A702", "zipcode": "", "telephone": "027-81366019", "display_x": "114.16748", "display_y": "30.15611", "side": "R", "address": "法泗洲路99", "mpLayer": 0 }, "geometry": { "type": "Point", "coordinates": [ 114.161906880000004, 30.1585420800000001 ] } },
{ "type": "Feature", "properties": { "gml_id": "layer_scientific_pt.220421", "Name": "新洲区辛冲镇东城小学", "pyname": "xzqxczdcxx", "kind": "A702", "zipcode": "", "telephone": "", "display_x": "114.8269", "display_y": "30.83113", "side": "R", "address": "", "mpLayer": 0 }, "geometry": { "type": "Point", "coordinates": [ 114.821711820000004, 30.8335505900000015 ] } },
{ "type": "Feature", "properties": { "gml_id": "layer_scientific_pt.220423", "Name": "武汉市建委教育培训中心", "pyname": "whsjwjypxzx", "kind": "7480", "zipcode": "", "telephone": "", "display_x": "114.28748", "display_y": "30.59304", "side": "L", "address": "台东路24附近", "mpLayer": 0 }, "geometry": { "type": "Point", "coordinates": [ 114.282046620000003, 30.5954735000000007 ] } },
{ "type": "Feature", "properties": { "gml_id": "layer_scientific_pt.220425", "Name": "湖北省纤维制品检测中心", "pyname": "hbsxwzpjczx", "kind": "A880", "zipcode": "430061", "telephone": "", "display_x": "114.31385", "display_y": "30.55587", "side": "R", "address": "公平路8", "mpLayer": 0 }, "geometry": { "type": "Point", "coordinates": [ 114.308392499999997, 30.558279240000001 ] } },
{ "type": "Feature", "properties": { "gml_id": "layer_scientific_pt.220441", "Name": "黄陂区蔡家榨街蔡榨小学", "pyname": "hpqcjzjczxx", "kind": "A702", "zipcode": "430332", "telephone": "027-85091091", "display_x": "114.53599", "display_y": "30.92416", "side": "N", "address": "兴顺路2", "mpLayer": 0 }, "geometry": { "type": "Point", "coordinates": [ 114.530777819999997, 30.9265388100000003 ] } },
{ "type": "Feature", "properties": { "gml_id": "layer_scientific_pt.220447", "Name": "巨人教育", "pyname": "jrjy", "kind": "A709", "zipcode": "", "telephone": "027-85780782", "display_x": "114.27164", "display_y": "30.59805", "side": "L", "address": "新华路404号宏元商务大厦7层", "mpLayer": 0 }, "geometry": { "type": "Point", "coordinates": [ 114.266211119999994, 30.6004941499999994 ] } },
{ "type": "Feature", "properties": { "gml_id": "layer_scientific_pt.220448", "Name": "银河幼儿园", "pyname": "yhyey", "kind": "A701", "zipcode": "", "telephone": "027-62953405", "display_x": "114.41232", "display_y": "30.52859", "side": "R", "address": "茅屋岭272", "mpLayer": 0 }, "geometry": { "type": "Point", "coordinates": [ 114.406795079999995, 30.5309019600000013 ] } },
{ "type": "Feature", "properties": { "gml_id": "layer_scientific_pt.220453", "Name": "新洲区双柳街陈路小学", "pyname": "xzqsljclxx", "kind": "A702", "zipcode": "", "telephone": "027-89771256", "display_x": "114.7631", "display_y": "30.6197", "side": "L", "address": "", "mpLayer": 0 }, "geometry": { "type": "Point", "coordinates": [ 114.757839360000006, 30.6221458999999996 ] } },
{ "type": "Feature", "properties": { "gml_id": "layer_scientific_pt.220462", "Name": "飞达教育", "pyname": "fdjy", "kind": "A709", "zipcode": "", "telephone": "027-51839670", "display_x": "114.16356", "display_y": "30.50895", "side": "R", "address": "沌口江大1号门", "mpLayer": 0 }, "geometry": { "type": "Point", "coordinates": [ 114.157945440000006, 30.5113232699999983 ] } },
{ "type": "Feature", "properties": { "gml_id": "layer_scientific_pt.220482", "Name": "骆店小学", "pyname": "ldxx", "kind": "A702", "zipcode": "", "telephone": "", "display_x": "114.58914", "display_y": "30.85526", "side": "L", "address": "", "mpLayer": 0 }, "geometry": { "type": "Point", "coordinates": [ 114.584052600000007, 30.8577687300000001 ] } },
{ "type": "Feature", "properties": { "gml_id": "layer_scientific_pt.220483", "Name": "甘棠二小", "pyname": "gtex", "kind": "A702", "zipcode": "", "telephone": "", "display_x": "114.54649", "display_y": "30.88208", "side": "L", "address": "", "mpLayer": 0 }, "geometry": { "type": "Point", "coordinates": [ 114.541312320000003, 30.8845062500000012 ] } },
{ "type": "Feature", "properties": { "gml_id": "layer_scientific_pt.220489", "Name": "中国石油化工江汉油田分公司物探研", "pyname": "zgsyhgjhytfgswtyjy", "kind": "A880", "zipcode": "", "telephone": "", "display_x": "114.19791", "display_y": "30.60387", "side": "L", "address": "南泥湾大道71号汇丰企业总部内", "mpLayer": 0 }, "geometry": { "type": "Point", "coordinates": [ 114.192384480000001, 30.60627152 ] } },
{ "type": "Feature", "properties": { "gml_id": "layer_scientific_pt.220492", "Name": "中交第二公路勘察设计研究院", "pyname": "zjdeglkcsjyjy", "kind": "A880", "zipcode": "", "telephone": "", "display_x": "114.25784", "display_y": "30.52516", "side": "R", "address": "鹦鹉大道498号", "mpLayer": 0 }, "geometry": { "type": "Point", "coordinates": [ 114.252406739999998, 30.5276286600000013 ] } },
{ "type": "Feature", "properties": { "gml_id": "layer_scientific_pt.220493", "Name": "武汉市卫生局党校", "pyname": "whswsjdx", "kind": "A700", "zipcode": "", "telephone": "027-82800671", "display_x": "114.29144", "display_y": "30.58908", "side": "R", "address": "京汉大道960", "mpLayer": 0 }, "geometry": { "type": "Point", "coordinates": [ 114.286005540000005, 30.5915117899999984 ] } },
{ "type": "Feature", "properties": { "gml_id": "layer_scientific_pt.220501", "Name": "黄陂县祁家湾中学", "pyname": "hpxqjwzx", "kind": "A703", "zipcode": "", "telephone": "", "display_x": "114.23236", "display_y": "30.87636", "side": "R", "address": "朝前街1", "mpLayer": 0 }, "geometry": { "type": "Point", "coordinates": [ 114.226888860000003, 30.878671409999999 ] } },
{ "type": "Feature", "properties": { "gml_id": "layer_scientific_pt.220503", "Name": "凤凰台幼儿园", "pyname": "fhtyey", "kind": "A701", "zipcode": "", "telephone": "13135655518", "display_x": "114.80679", "display_y": "30.83645", "side": "L", "address": "凤凰街30", "mpLayer": 0 }, "geometry": { "type": "Point", "coordinates": [ 114.801563880000003, 30.8388341699999984 ] } },
{ "type": "Feature", "properties": { "gml_id": "layer_scientific_pt.220505", "Name": "湖北省体育运动学校体育舞蹈训练基", "pyname": "hbstyydxxtywdxljd", "kind": "A709", "zipcode": "", "telephone": "", "display_x": "114.329", "display_y": "30.66602", "side": "R", "address": "汉黄路13附1", "mpLayer": 0 }, "geometry": { "type": "Point", "coordinates": [ 114.323519520000005, 30.6683651300000015 ] } },
{ "type": "Feature", "properties": { "gml_id": "layer_scientific_pt.220511", "Name": "中国科学院老年大学武汉分校", "pyname": "zgkxylndxwhfx", "kind": "A709", "zipcode": "430000", "telephone": "", "display_x": "114.34983", "display_y": "30.53735", "side": "L", "address": "八一路139号", "mpLayer": 0 }, "geometry": { "type": "Point", "coordinates": [ 114.344332739999999, 30.5397118399999989 ] } },
{ "type": "Feature", "properties": { "gml_id": "layer_scientific_pt.220512", "Name": "现代英语培训中心丹水池分校", "pyname": "xdyypxzxdscfx", "kind": "A709", "zipcode": "", "telephone": "027-82327266", "display_x": "114.33168", "display_y": "30.64394", "side": "L", "address": "汉堤路1附近", "mpLayer": 0 }, "geometry": { "type": "Point", "coordinates": [ 114.326197199999996, 30.6462897500000011 ] } },
{ "type": "Feature", "properties": { "gml_id": "layer_scientific_pt.220515", "Name": "武汉材料保护研究所", "pyname": "whclbhyjs", "kind": "A880", "zipcode": "430000", "telephone": "", "display_x": "114.25795", "display_y": "30.58376", "side": "R", "address": "宝丰二路126", "mpLayer": 0 }, "geometry": { "type": "Point", "coordinates": [ 114.252524820000005, 30.5862197400000007 ] } },
{ "type": "Feature", "properties": { "gml_id": "layer_scientific_pt.220516", "Name": "德才职业培训学校（德才职业培训就", "pyname": "dczypxxx(dczypxjyw)", "kind": "A709", "zipcode": "430000", "telephone": "", "display_x": "114.34258", "display_y": "30.55485", "side": "L", "address": "中北路24号龙源国际广场19层", "mpLayer": 0 }, "geometry": { "type": "Point", "coordinates": [ 114.337088460000004, 30.5572152199999998 ] } },
{ "type": "Feature", "properties": { "gml_id": "layer_scientific_pt.220526", "Name": "武汉市江夏区第三中学", "pyname": "whsjxqdszx", "kind": "A703", "zipcode": "", "telephone": "", "display_x": "114.31638", "display_y": "30.34029", "side": "R", "address": "宁安路12", "mpLayer": 0 }, "geometry": { "type": "Point", "coordinates": [ 114.310945619999998, 30.3427548499999986 ] } },
{ "type": "Feature", "properties": { "gml_id": "layer_scientific_pt.220527", "Name": "武汉建筑工程学校", "pyname": "whjzgcxx", "kind": "A708", "zipcode": "", "telephone": "", "display_x": "114.31699", "display_y": "30.34256", "side": "L", "address": "纸坊大街825", "mpLayer": 0 }, "geometry": { "type": "Point", "coordinates": [ 114.311554380000004, 30.3450233900000015 ] } },
{ "type": "Feature", "properties": { "gml_id": "layer_scientific_pt.220528", "Name": "建设小学", "pyname": "jsxx", "kind": "A702", "zipcode": "", "telephone": "", "display_x": "114.50284", "display_y": "31.09845", "side": "L", "address": "环湖线", "mpLayer": 0 }, "geometry": { "type": "Point", "coordinates": [ 114.497490240000005, 31.1006315300000011 ] } },
{ "type": "Feature", "properties": { "gml_id": "layer_scientific_pt.220540", "Name": "武汉市江夏区委党校", "pyname": "whsjxqwdx", "kind": "A700", "zipcode": "", "telephone": "027-81822174", "display_x": "114.32082", "display_y": "30.35832", "side": "R", "address": "北华街30", "mpLayer": 0 }, "geometry": { "type": "Point", "coordinates": [ 114.315377040000001, 30.3607740600000007 ] } },
{ "type": "Feature", "properties": { "gml_id": "layer_scientific_pt.220545", "Name": "武汉仁智初级中学", "pyname": "whrzcjzx", "kind": "A703", "zipcode": "430000", "telephone": "", "display_x": "114.26284", "display_y": "30.58473", "side": "L", "address": "电业村177", "mpLayer": 0 }, "geometry": { "type": "Point", "coordinates": [ 114.257413439999993, 30.5871856199999996 ] } },
{ "type": "Feature", "properties": { "gml_id": "layer_scientific_pt.220547", "Name": "武汉市教育科学研究院", "pyname": "whsjykxyjy", "kind": "A880", "zipcode": "430000", "telephone": "027-85645523", "display_x": "114.26958", "display_y": "30.56844", "side": "L", "address": "中山大道278", "mpLayer": 0 }, "geometry": { "type": "Point", "coordinates": [ 114.264150479999998, 30.5708936000000016 ] } },
{ "type": "Feature", "properties": { "gml_id": "layer_scientific_pt.220551", "Name": "美国迪斯尼现代系统教学", "pyname": "mgdsnxdxtjx", "kind": "A709", "zipcode": "", "telephone": "", "display_x": "114.33416", "display_y": "30.5325", "side": "R", "address": "武珞路282思特大厦6层", "mpLayer": 0 }, "geometry": { "type": "Point", "coordinates": [ 114.328682639999997, 30.5348876999999987 ] } },
{ "type": "Feature", "properties": { "gml_id": "layer_scientific_pt.220552", "Name": "北京四中网校武汉分校", "pyname": "bjszwxwhfx", "kind": "A709", "zipcode": "", "telephone": "", "display_x": "114.33416", "display_y": "30.5325", "side": "R", "address": "武珞路282思特大厦7层", "mpLayer": 0 }, "geometry": { "type": "Point", "coordinates": [ 114.328682639999997, 30.5348876999999987 ] } },
{ "type": "Feature", "properties": { "gml_id": "layer_scientific_pt.220554", "Name": "卡丽诗湖北美发美容培训中心", "pyname": "klshbmfmrpxzx", "kind": "A709", "zipcode": "", "telephone": "", "display_x": "114.28679", "display_y": "30.58505", "side": "R", "address": "江汉路206号世纪大厦11／17层", "mpLayer": 0 }, "geometry": { "type": "Point", "coordinates": [ 114.281356680000002, 30.5874863599999998 ] } },
{ "type": "Feature", "properties": { "gml_id": "layer_scientific_pt.220556", "Name": "晨光双语幼儿园", "pyname": "cgsyyey", "kind": "A701", "zipcode": "", "telephone": "027-83732641", "display_x": "114.25519", "display_y": "30.56705", "side": "R", "address": "汉中西路112号附近", "mpLayer": 0 }, "geometry": { "type": "Point", "coordinates": [ 114.249764519999999, 30.5695154299999992 ] } },
{ "type": "Feature", "properties": { "gml_id": "layer_scientific_pt.220558", "Name": "巨人培优", "pyname": "jrpy", "kind": "A709", "zipcode": "430000", "telephone": "027-87710306", "display_x": "114.34137", "display_y": "30.54998", "side": "L", "address": "省质监局对面", "mpLayer": 0 }, "geometry": { "type": "Point", "coordinates": [ 114.335881020000002, 30.5523494599999985 ] } },
{ "type": "Feature", "properties": { "gml_id": "layer_scientific_pt.220559", "Name": "武汉市实验小学", "pyname": "whssyxx", "kind": "A702", "zipcode": "", "telephone": "027-82833790", "display_x": "114.29601", "display_y": "30.59495", "side": "R", "address": "球场横街10", "mpLayer": 0 }, "geometry": { "type": "Point", "coordinates": [ 114.290574300000003, 30.5973761899999985 ] } },
{ "type": "Feature", "properties": { "gml_id": "layer_scientific_pt.220561", "Name": "阳光喔作文", "pyname": "ygwzw", "kind": "A709", "zipcode": "", "telephone": "027-88779766", "display_x": "114.30885", "display_y": "30.54692", "side": "L", "address": "胭脂山桂苑旁", "mpLayer": 0 }, "geometry": { "type": "Point", "coordinates": [ 114.303392279999997, 30.5493342800000001 ] } },
{ "type": "Feature", "properties": { "gml_id": "layer_scientific_pt.220562", "Name": "积木宝贝", "pyname": "jmbb", "kind": "A701", "zipcode": "", "telephone": "027-87585928", "display_x": "114.32791", "display_y": "30.50136", "side": "L", "address": "武昌府花样街A区105B", "mpLayer": 0 }, "geometry": { "type": "Point", "coordinates": [ 114.322445639999998, 30.5037696199999999 ] } },
{ "type": "Feature", "properties": { "gml_id": "layer_scientific_pt.220563", "Name": "亿童幼儿园", "pyname": "ytyey", "kind": "A701", "zipcode": "", "telephone": "", "display_x": "114.40111", "display_y": "30.47122", "side": "N", "address": "", "mpLayer": 0 }, "geometry": { "type": "Point", "coordinates": [ 114.395575500000007, 30.4735414999999996 ] } },
{ "type": "Feature", "properties": { "gml_id": "layer_scientific_pt.220579", "Name": "潘塘街中心幼儿园", "pyname": "ptjzxyey", "kind": "A701", "zipcode": "", "telephone": "", "display_x": "114.89405", "display_y": "30.99808", "side": "R", "address": "潘西路49", "mpLayer": 0 }, "geometry": { "type": "Point", "coordinates": [ 114.888953700000002, 31.0005010399999996 ] } },
{ "type": "Feature", "properties": { "gml_id": "layer_scientific_pt.220594", "Name": "南湖驾校二十队训练基地", "pyname": "nhjxesdxljd", "kind": "A706", "zipcode": "", "telephone": "13397118665", "display_x": "114.34168", "display_y": "30.47991", "side": "R", "address": "南湖大道", "mpLayer": 0 }, "geometry": { "type": "Point", "coordinates": [ 114.336196740000005, 30.4823006599999999 ] } },
{ "type": "Feature", "properties": { "gml_id": "layer_scientific_pt.220595", "Name": "国家大宗淡水鱼加工技术研发中心（", "pyname": "gjdzdsyjgjsyfzx(wh)", "kind": "A880", "zipcode": "", "telephone": "", "display_x": "114.36385", "display_y": "30.47701", "side": "L", "address": "", "mpLayer": 0 }, "geometry": { "type": "Point", "coordinates": [ 114.358336919999999, 30.4793654399999987 ] } },
{ "type": "Feature", "properties": { "gml_id": "layer_scientific_pt.220597", "Name": "梅冲小学", "pyname": "mcxx", "kind": "A702", "zipcode": "", "telephone": "", "display_x": "114.29919", "display_y": "30.83856", "side": "R", "address": "", "mpLayer": 0 }, "geometry": { "type": "Point", "coordinates": [ 114.293734380000004, 30.8408659199999988 ] } },
{ "type": "Feature", "properties": { "gml_id": "layer_scientific_pt.220598", "Name": "木兰小学", "pyname": "mlxx", "kind": "A702", "zipcode": "", "telephone": "", "display_x": "114.36458", "display_y": "30.8982", "side": "L", "address": "致富路27", "mpLayer": 0 }, "geometry": { "type": "Point", "coordinates": [ 114.359025419999995, 30.9003582200000011 ] } },
{ "type": "Feature", "properties": { "gml_id": "layer_scientific_pt.220599", "Name": "湖北黄陂一中", "pyname": "hbhpyz", "kind": "A703", "zipcode": "", "telephone": "", "display_x": "114.36125", "display_y": "30.90279", "side": "R", "address": "木兰大街280", "mpLayer": 0 }, "geometry": { "type": "Point", "coordinates": [ 114.355700100000007, 30.9049516400000002 ] } },
{ "type": "Feature", "properties": { "gml_id": "layer_scientific_pt.220607", "Name": "武汉纺织大学", "pyname": "whfzdx", "kind": "A700", "zipcode": "", "telephone": "027-87611607", "display_x": "114.39829", "display_y": "30.48573", "side": "R", "address": "民族大道227附近", "mpLayer": 0 }, "geometry": { "type": "Point", "coordinates": [ 114.392758139999998, 30.4880517500000003 ] } },
{ "type": "Feature", "properties": { "gml_id": "layer_scientific_pt.220608", "Name": "武汉纺织大学幼儿园", "pyname": "whfzdxyey", "kind": "A701", "zipcode": "", "telephone": "", "display_x": "114.39697", "display_y": "30.4826", "side": "R", "address": "武汉纺织大学内", "mpLayer": 0 }, "geometry": { "type": "Point", "coordinates": [ 114.391436040000002, 30.4849211400000009 ] } },
{ "type": "Feature", "properties": { "gml_id": "layer_scientific_pt.220621", "Name": "武汉市农科院畜牧兽医科学研究所", "pyname": "whsnkyxmsykxyjs", "kind": "A880", "zipcode": "", "telephone": "", "display_x": "114.18427", "display_y": "30.34496", "side": "L", "address": "纸金路", "mpLayer": 0 }, "geometry": { "type": "Point", "coordinates": [ 114.178728960000001, 30.3474085699999989 ] } },
{ "type": "Feature", "properties": { "gml_id": "layer_scientific_pt.220622", "Name": "金牛子中英文幼儿园", "pyname": "jnzzywyey", "kind": "A701", "zipcode": "", "telephone": "", "display_x": "114.31865", "display_y": "30.52183", "side": "L", "address": "", "mpLayer": 0 }, "geometry": { "type": "Point", "coordinates": [ 114.313195260000001, 30.5242481300000001 ] } },
{ "type": "Feature", "properties": { "gml_id": "layer_scientific_pt.220625", "Name": "韦博国际英语武汉中南英语培训学校", "pyname": "wbgjyywhznyypxxx", "kind": "A709", "zipcode": "", "telephone": "027-87269666", "display_x": "114.33185", "display_y": "30.53592", "side": "R", "address": "中南路7号中商广场写字楼35层A座3501", "mpLayer": 0 }, "geometry": { "type": "Point", "coordinates": [ 114.326375760000005, 30.5383109899999994 ] } },
{ "type": "Feature", "properties": { "gml_id": "layer_scientific_pt.220626", "Name": "武汉新动态英语培训学校", "pyname": "whxdtyypxxx", "kind": "A709", "zipcode": "", "telephone": "027-59501688", "display_x": "114.33185", "display_y": "30.53592", "side": "R", "address": "中南路7号中商广场写字楼37层3701", "mpLayer": 0 }, "geometry": { "type": "Point", "coordinates": [ 114.326375760000005, 30.5383109899999994 ] } },
{ "type": "Feature", "properties": { "gml_id": "layer_scientific_pt.220627", "Name": "东西湖区将军路小学", "pyname": "dxhqjjlxx", "kind": "A702", "zipcode": "", "telephone": "027-83941567", "display_x": "114.26012", "display_y": "30.64907", "side": "R", "address": "八栋房村122", "mpLayer": 0 }, "geometry": { "type": "Point", "coordinates": [ 114.254697239999999, 30.6515079499999992 ] } },
{ "type": "Feature", "properties": { "gml_id": "layer_scientific_pt.220638", "Name": "武汉大学医学部－消化系病研究中心", "pyname": "whdxyxb-xhxbyjzx", "kind": "A880", "zipcode": "", "telephone": "", "display_x": "114.35447", "display_y": "30.55527", "side": "R", "address": "武汉大学医学部内", "mpLayer": 0 }, "geometry": { "type": "Point", "coordinates": [ 114.348963060000003, 30.5576159899999986 ] } },
{ "type": "Feature", "properties": { "gml_id": "layer_scientific_pt.220640", "Name": "添星幼儿园", "pyname": "txyey", "kind": "A701", "zipcode": "", "telephone": "027-83519635", "display_x": "114.2289", "display_y": "30.59068", "side": "L", "address": "汉西北路67", "mpLayer": 0 }, "geometry": { "type": "Point", "coordinates": [ 114.223438439999995, 30.5931226500000015 ] } },
{ "type": "Feature", "properties": { "gml_id": "layer_scientific_pt.220641", "Name": "圣鹏驾校", "pyname": "spjx", "kind": "A706", "zipcode": "", "telephone": "027-83942611", "display_x": "114.26086", "display_y": "30.65172", "side": "L", "address": "将军路220附6", "mpLayer": 0 }, "geometry": { "type": "Point", "coordinates": [ 114.255437220000005, 30.6541566000000003 ] } },
{ "type": "Feature", "properties": { "gml_id": "layer_scientific_pt.220642", "Name": "星星幼儿园", "pyname": "xxyey", "kind": "A701", "zipcode": "", "telephone": "", "display_x": "114.34368", "display_y": "30.59182", "side": "L", "address": "友谊大道481附1", "mpLayer": 0 }, "geometry": { "type": "Point", "coordinates": [ 114.33818196, 30.5941683600000012 ] } },
{ "type": "Feature", "properties": { "gml_id": "layer_scientific_pt.220645", "Name": "新洲区毛集小学", "pyname": "xzqmjxx", "kind": "A702", "zipcode": "", "telephone": "", "display_x": "114.63944", "display_y": "30.66149", "side": "R", "address": "", "mpLayer": 0 }, "geometry": { "type": "Point", "coordinates": [ 114.634351440000003, 30.6640764899999994 ] } },
{ "type": "Feature", "properties": { "gml_id": "layer_scientific_pt.220646", "Name": "武汉市吴家山第五中学", "pyname": "whswjsdwzx", "kind": "A703", "zipcode": "", "telephone": "027-83896020", "display_x": "114.14384", "display_y": "30.61349", "side": "L", "address": "吴家山三支沟", "mpLayer": 0 }, "geometry": { "type": "Point", "coordinates": [ 114.138164880000005, 30.6157937900000015 ] } },
{ "type": "Feature", "properties": { "gml_id": "layer_scientific_pt.220647", "Name": "武汉摄影学校", "pyname": "whsyxx", "kind": "A709", "zipcode": "", "telephone": "", "display_x": "114.33537", "display_y": "30.64482", "side": "L", "address": "菜园街1", "mpLayer": 0 }, "geometry": { "type": "Point", "coordinates": [ 114.329881259999993, 30.6471624300000016 ] } },
{ "type": "Feature", "properties": { "gml_id": "layer_scientific_pt.220648", "Name": "长江航道测量中心", "pyname": "cjhdclzx", "kind": "A880", "zipcode": "", "telephone": "", "display_x": "114.29998", "display_y": "30.59667", "side": "R", "address": "京汉大道1242", "mpLayer": 0 }, "geometry": { "type": "Point", "coordinates": [ 114.294543840000003, 30.5990930299999988 ] } },
{ "type": "Feature", "properties": { "gml_id": "layer_scientific_pt.220649", "Name": "中南神学院北门", "pyname": "znsxybm", "kind": "A709", "zipcode": "430000", "telephone": "", "display_x": "114.30335", "display_y": "30.54609", "side": "R", "address": "三道街", "mpLayer": 0 }, "geometry": { "type": "Point", "coordinates": [ 114.297895440000005, 30.5485101899999982 ] } },
{ "type": "Feature", "properties": { "gml_id": "layer_scientific_pt.220658", "Name": "湖北警官学院（南校区）", "pyname": "hbjgxy(nxq)", "kind": "A700", "zipcode": "", "telephone": "027-83215146", "display_x": "114.20506", "display_y": "30.59077", "side": "L", "address": "古田三路4", "mpLayer": 0 }, "geometry": { "type": "Point", "coordinates": [ 114.19955496, 30.593188940000001 ] } },
{ "type": "Feature", "properties": { "gml_id": "layer_scientific_pt.220659", "Name": "武汉径河中心小学", "pyname": "whjhzxxx", "kind": "A702", "zipcode": "", "telephone": "027-83231283", "display_x": "114.16433", "display_y": "30.67788", "side": "R", "address": "十字南街16", "mpLayer": 0 }, "geometry": { "type": "Point", "coordinates": [ 114.158703959999997, 30.6801898199999989 ] } },
{ "type": "Feature", "properties": { "gml_id": "layer_scientific_pt.220663", "Name": "武汉市实用外语学校", "pyname": "whssywyxx", "kind": "A708", "zipcode": "430000", "telephone": "", "display_x": "114.27203", "display_y": "30.56653", "side": "R", "address": "汉中路208", "mpLayer": 0 }, "geometry": { "type": "Point", "coordinates": [ 114.266599560000003, 30.5689819999999983 ] } },
{ "type": "Feature", "properties": { "gml_id": "layer_scientific_pt.220664", "Name": "国家标准馆武汉分馆", "pyname": "gjbzgwhfg", "kind": "A880", "zipcode": "", "telephone": "", "display_x": "114.26273", "display_y": "30.59938", "side": "R", "address": "青年路263号", "mpLayer": 0 }, "geometry": { "type": "Point", "coordinates": [ 114.257303640000003, 30.6018306500000001 ] } },
{ "type": "Feature", "properties": { "gml_id": "layer_scientific_pt.220670", "Name": "湖北农民科技教育培训中心", "pyname": "hbnmkjjypxzx", "kind": "A709", "zipcode": "", "telephone": "", "display_x": "114.3369", "display_y": "30.53211", "side": "L", "address": "武珞路519号湖北农业事业大厦18层", "mpLayer": 0 }, "geometry": { "type": "Point", "coordinates": [ 114.331419179999997, 30.5344936400000009 ] } },
{ "type": "Feature", "properties": { "gml_id": "layer_scientific_pt.220671", "Name": "湖北省农业科技发展中心", "pyname": "hbsnykjfzzx", "kind": "A880", "zipcode": "", "telephone": "", "display_x": "114.3369", "display_y": "30.53211", "side": "L", "address": "武珞路519号湖北农业事业大厦19层", "mpLayer": 0 }, "geometry": { "type": "Point", "coordinates": [ 114.331419179999997, 30.5344936400000009 ] } },
{ "type": "Feature", "properties": { "gml_id": "layer_scientific_pt.220680", "Name": "武汉小小橡树实验幼儿园", "pyname": "whxxxssyyey", "kind": "A701", "zipcode": "", "telephone": "027-83950980", "display_x": "114.23701", "display_y": "30.64248", "side": "L", "address": "康居三路2巷5", "mpLayer": 0 }, "geometry": { "type": "Point", "coordinates": [ 114.231560579999993, 30.6449107699999992 ] } },
{ "type": "Feature", "properties": { "gml_id": "layer_scientific_pt.220684", "Name": "蔡甸区侏儒中心小学", "pyname": "cdqzrzxxx", "kind": "A702", "zipcode": "", "telephone": "027-84965148", "display_x": "113.84126", "display_y": "30.44091", "side": "L", "address": "蟹湖大街406", "mpLayer": 0 }, "geometry": { "type": "Point", "coordinates": [ 113.83567506, 30.4435350500000013 ] } },
{ "type": "Feature", "properties": { "gml_id": "layer_scientific_pt.220685", "Name": "蔡甸区侏儒中学", "pyname": "cdqzrzx", "kind": "A703", "zipcode": "", "telephone": "", "display_x": "113.84126", "display_y": "30.44231", "side": "L", "address": "侏建路25", "mpLayer": 0 }, "geometry": { "type": "Point", "coordinates": [ 113.835674879999999, 30.4449347699999997 ] } },
{ "type": "Feature", "properties": { "gml_id": "layer_scientific_pt.220686", "Name": "横龙小学", "pyname": "hlxx", "kind": "A702", "zipcode": "", "telephone": "027-69400756", "display_x": "113.82219", "display_y": "30.47087", "side": "L", "address": "", "mpLayer": 0 }, "geometry": { "type": "Point", "coordinates": [ 113.816547360000001, 30.4734514499999989 ] } },
{ "type": "Feature", "properties": { "gml_id": "layer_scientific_pt.220705", "Name": "兰剑驾校训练场", "pyname": "ljjxxlc", "kind": "A706", "zipcode": "", "telephone": "13871122302", "display_x": "114.21554", "display_y": "30.56522", "side": "L", "address": "玫瑰街69", "mpLayer": 0 }, "geometry": { "type": "Point", "coordinates": [ 114.210062460000003, 30.5676640800000001 ] } },
{ "type": "Feature", "properties": { "gml_id": "layer_scientific_pt.220712", "Name": "塘埠小学", "pyname": "tbxx", "kind": "A702", "zipcode": "", "telephone": "", "display_x": "114.39946", "display_y": "30.85106", "side": "L", "address": "黄武公路", "mpLayer": 0 }, "geometry": { "type": "Point", "coordinates": [ 114.393887640000003, 30.8532110899999985 ] } },
{ "type": "Feature", "properties": { "gml_id": "layer_scientific_pt.220716", "Name": "爱林小学", "pyname": "alxx", "kind": "A702", "zipcode": "", "telephone": "", "display_x": "114.24682", "display_y": "31.07055", "side": "L", "address": "", "mpLayer": 0 }, "geometry": { "type": "Point", "coordinates": [ 114.241350960000005, 31.0727571299999994 ] } },
{ "type": "Feature", "properties": { "gml_id": "layer_scientific_pt.220717", "Name": "黄陂区泡桐第二中学", "pyname": "hpqptdezx", "kind": "A703", "zipcode": "", "telephone": "", "display_x": "114.207", "display_y": "31.05704", "side": "R", "address": "五显街", "mpLayer": 0 }, "geometry": { "type": "Point", "coordinates": [ 114.201457739999995, 31.0592146999999983 ] } },
{ "type": "Feature", "properties": { "gml_id": "layer_scientific_pt.220718", "Name": "武汉机电工程学校东门", "pyname": "whjdgcxxdm", "kind": "A708", "zipcode": "", "telephone": "", "display_x": "114.31352", "display_y": "30.6406", "side": "R", "address": "怡康路", "mpLayer": 0 }, "geometry": { "type": "Point", "coordinates": [ 114.308065619999994, 30.6429849499999989 ] } },
{ "type": "Feature", "properties": { "gml_id": "layer_scientific_pt.220721", "Name": "仁和会计培训陈家湾校区", "pyname": "rhkjpxcjwxq", "kind": "A709", "zipcode": "", "telephone": "027-87779165", "display_x": "114.36645", "display_y": "30.50849", "side": "L", "address": "雄楚大道357号乐时汇3层", "mpLayer": 0 }, "geometry": { "type": "Point", "coordinates": [ 114.36093468, 30.5108354300000002 ] } },
{ "type": "Feature", "properties": { "gml_id": "layer_scientific_pt.220722", "Name": "亲亲婴幼园", "pyname": "qqyyy", "kind": "A701", "zipcode": "", "telephone": "", "display_x": "114.36533", "display_y": "30.50276", "side": "R", "address": "卓刀泉南路", "mpLayer": 0 }, "geometry": { "type": "Point", "coordinates": [ 114.359816159999994, 30.5051083200000015 ] } },
{ "type": "Feature", "properties": { "gml_id": "layer_scientific_pt.220723", "Name": "南湖街老年大学", "pyname": "nhjlndx", "kind": "A709", "zipcode": "", "telephone": "", "display_x": "114.32123", "display_y": "30.50976", "side": "R", "address": "雅安街", "mpLayer": 0 }, "geometry": { "type": "Point", "coordinates": [ 114.315773579999998, 30.5121784100000006 ] } },
{ "type": "Feature", "properties": { "gml_id": "layer_scientific_pt.220724", "Name": "中船重工第七〇九研究所南门", "pyname": "zczgdqljyjsnm", "kind": "A880", "zipcode": "", "telephone": "", "display_x": "114.39142", "display_y": "30.50508", "side": "N", "address": "", "mpLayer": 0 }, "geometry": { "type": "Point", "coordinates": [ 114.385881420000004, 30.5073949999999989 ] } },
{ "type": "Feature", "properties": { "gml_id": "layer_scientific_pt.220725", "Name": "世纪教育", "pyname": "sjjy", "kind": "A709", "zipcode": "", "telephone": "", "display_x": "114.39382", "display_y": "30.5055", "side": "L", "address": "虎泉街", "mpLayer": 0 }, "geometry": { "type": "Point", "coordinates": [ 114.388283700000002, 30.5078158399999992 ] } },
{ "type": "Feature", "properties": { "gml_id": "layer_scientific_pt.220726", "Name": "东方金子塔儿童潜能培训学校", "pyname": "dfjztetqnpxxx", "kind": "A709", "zipcode": "", "telephone": "", "display_x": "114.33459", "display_y": "30.53233", "side": "R", "address": "武珞路558号合丰财富时代3层", "mpLayer": 0 }, "geometry": { "type": "Point", "coordinates": [ 114.329111940000004, 30.5347169700000016 ] } },
{ "type": "Feature", "properties": { "gml_id": "layer_scientific_pt.220727", "Name": "国子学府街道口校区", "pyname": "gzxfjdkxq", "kind": "A709", "zipcode": "", "telephone": "027-87388205", "display_x": "114.35434", "display_y": "30.52662", "side": "L", "address": "珞喻路", "mpLayer": 0 }, "geometry": { "type": "Point", "coordinates": [ 114.34883868, 30.528979249999999 ] } },
{ "type": "Feature", "properties": { "gml_id": "layer_scientific_pt.220729", "Name": "武昌区千家街小学", "pyname": "wcqqjjxx", "kind": "A702", "zipcode": "430000", "telephone": "", "display_x": "114.31671", "display_y": "30.53502", "side": "R", "address": "千家街107", "mpLayer": 0 }, "geometry": { "type": "Point", "coordinates": [ 114.311244419999994, 30.5374266900000002 ] } },
{ "type": "Feature", "properties": { "gml_id": "layer_scientific_pt.220733", "Name": "武汉燃气热力技校", "pyname": "whrqrljx", "kind": "A708", "zipcode": "", "telephone": "", "display_x": "114.34372", "display_y": "30.58316", "side": "L", "address": "团结路35", "mpLayer": 0 }, "geometry": { "type": "Point", "coordinates": [ 114.338222819999999, 30.5855115799999986 ] } },
{ "type": "Feature", "properties": { "gml_id": "layer_scientific_pt.220734", "Name": "武汉市燃气热力学校", "pyname": "whsrqrlxx", "kind": "A708", "zipcode": "", "telephone": "", "display_x": "114.34372", "display_y": "30.58316", "side": "L", "address": "团结路35", "mpLayer": 0 }, "geometry": { "type": "Point", "coordinates": [ 114.338222819999999, 30.5855115799999986 ] } },
{ "type": "Feature", "properties": { "gml_id": "layer_scientific_pt.220735", "Name": "北大青鸟黄埔校区", "pyname": "bdqnhpxq", "kind": "A709", "zipcode": "", "telephone": "", "display_x": "114.3094", "display_y": "30.6359", "side": "R", "address": "新江岸五村188", "mpLayer": 0 }, "geometry": { "type": "Point", "coordinates": [ 114.303950999999998, 30.63829329 ] } },
{ "type": "Feature", "properties": { "gml_id": "layer_scientific_pt.220736", "Name": "小博士双语幼儿园", "pyname": "xbssyyey", "kind": "A701", "zipcode": "", "telephone": "13871029762", "display_x": "114.43331", "display_y": "30.62303", "side": "L", "address": "厂前派出所附近", "mpLayer": 0 }, "geometry": { "type": "Point", "coordinates": [ 114.427796939999993, 30.6253161899999995 ] } },
{ "type": "Feature", "properties": { "gml_id": "layer_scientific_pt.220737", "Name": "快乐童年幼儿园黄陂一园", "pyname": "kltnyeyhpyy", "kind": "A701", "zipcode": "", "telephone": "15827247108", "display_x": "114.41322", "display_y": "30.69885", "side": "R", "address": "汉施大道80号", "mpLayer": 0 }, "geometry": { "type": "Point", "coordinates": [ 114.407667000000004, 30.7010809400000007 ] } },
{ "type": "Feature", "properties": { "gml_id": "layer_scientific_pt.220738", "Name": "新民社区双语艺术幼儿园", "pyname": "xmsqsyysyey", "kind": "A701", "zipcode": "", "telephone": "15926395389", "display_x": "114.18199", "display_y": "30.51345", "side": "L", "address": "新民花园小区64栋", "mpLayer": 0 }, "geometry": { "type": "Point", "coordinates": [ 114.176428020000003, 30.515856209999999 ] } },
{ "type": "Feature", "properties": { "gml_id": "layer_scientific_pt.220740", "Name": "中铁重工幼儿园", "pyname": "ztzgyey", "kind": "A701", "zipcode": "", "telephone": "027-50805789", "display_x": "114.36116", "display_y": "30.59912", "side": "L", "address": "铁机公寓附近", "mpLayer": 0 }, "geometry": { "type": "Point", "coordinates": [ 114.355638720000002, 30.6014375700000016 ] } },
{ "type": "Feature", "properties": { "gml_id": "layer_scientific_pt.220742", "Name": "纸坊第二小学", "pyname": "zfdexx", "kind": "A702", "zipcode": "", "telephone": "027-87952492", "display_x": "114.31631", "display_y": "30.34538", "side": "L", "address": "中兴街40", "mpLayer": 0 }, "geometry": { "type": "Point", "coordinates": [ 114.31087488, 30.3478441200000013 ] } },
{ "type": "Feature", "properties": { "gml_id": "layer_scientific_pt.220746", "Name": "湖北现代科技学校", "pyname": "hbxdkjxx", "kind": "A708", "zipcode": "430062", "telephone": "", "display_x": "114.32688", "display_y": "30.57937", "side": "N", "address": "学院路9号", "mpLayer": 0 }, "geometry": { "type": "Point", "coordinates": [ 114.321408840000004, 30.5817539899999993 ] } },
{ "type": "Feature", "properties": { "gml_id": "layer_scientific_pt.220748", "Name": "湖北水利水电职业技术学院汤逊湖校", "pyname": "hbslsdzyjsxytxhxq", "kind": "A700", "zipcode": "", "telephone": "", "display_x": "114.40628", "display_y": "30.37146", "side": "R", "address": "", "mpLayer": 0 }, "geometry": { "type": "Point", "coordinates": [ 114.40075032, 30.3737981899999987 ] } },
{ "type": "Feature", "properties": { "gml_id": "layer_scientific_pt.220749", "Name": "湖北工业大学－湖北职业教育发展研", "pyname": "hbgydx-hbzyjyfzyjy", "kind": "A880", "zipcode": "", "telephone": "", "display_x": "114.30949", "display_y": "30.48489", "side": "L", "address": "湖北工业大学内", "mpLayer": 0 }, "geometry": { "type": "Point", "coordinates": [ 114.3040527, 30.487335980000001 ] } },
{ "type": "Feature", "properties": { "gml_id": "layer_scientific_pt.220761", "Name": "文君教育", "pyname": "wjjy", "kind": "A709", "zipcode": "", "telephone": "027-87772252", "display_x": "114.36763", "display_y": "30.50075", "side": "R", "address": "雄楚大道瀚城商业街307～12室", "mpLayer": 0 }, "geometry": { "type": "Point", "coordinates": [ 114.362113500000007, 30.5030954299999983 ] } },
{ "type": "Feature", "properties": { "gml_id": "layer_scientific_pt.220762", "Name": "博创教育", "pyname": "bcjy", "kind": "A709", "zipcode": "", "telephone": "", "display_x": "114.39864", "display_y": "30.50428", "side": "L", "address": "尖东智能花园4栋902", "mpLayer": 0 }, "geometry": { "type": "Point", "coordinates": [ 114.393108780000006, 30.5065984999999991 ] } },
{ "type": "Feature", "properties": { "gml_id": "layer_scientific_pt.220763", "Name": "复兴路小学水陆街校区", "pyname": "fxlxxsljxq", "kind": "A702", "zipcode": "430000", "telephone": "", "display_x": "114.29932", "display_y": "30.53113", "side": "R", "address": "水陆街45", "mpLayer": 0 }, "geometry": { "type": "Point", "coordinates": [ 114.29386452, 30.5335557900000012 ] } },
{ "type": "Feature", "properties": { "gml_id": "layer_scientific_pt.220773", "Name": "新动态国际英语沌口中心", "pyname": "xdtgjyyzkzx", "kind": "A709", "zipcode": "", "telephone": "", "display_x": "114.16786", "display_y": "30.4984", "side": "L", "address": "湘隆时代广场3楼", "mpLayer": 0 }, "geometry": { "type": "Point", "coordinates": [ 114.162258420000001, 30.5007842300000007 ] } },
{ "type": "Feature", "properties": { "gml_id": "layer_scientific_pt.220790", "Name": "孔埠中心幼儿园", "pyname": "kbzxyey", "kind": "A701", "zipcode": "", "telephone": "", "display_x": "114.67324", "display_y": "30.80483", "side": "R", "address": "致富街", "mpLayer": 0 }, "geometry": { "type": "Point", "coordinates": [ 114.668077499999995, 30.8072866999999988 ] } },
{ "type": "Feature", "properties": { "gml_id": "layer_scientific_pt.220791", "Name": "武汉市地税局干部学校", "pyname": "whsdsjgbxx", "kind": "A709", "zipcode": "", "telephone": "", "display_x": "114.46762", "display_y": "31.07371", "side": "L", "address": "木兰湖风景区内", "mpLayer": 0 }, "geometry": { "type": "Point", "coordinates": [ 114.462145980000003, 31.0758073199999991 ] } },
{ "type": "Feature", "properties": { "gml_id": "layer_scientific_pt.220798", "Name": "新洲新集中学", "pyname": "xzxjzx", "kind": "A703", "zipcode": "", "telephone": "", "display_x": "114.94472", "display_y": "30.89285", "side": "R", "address": "", "mpLayer": 0 }, "geometry": { "type": "Point", "coordinates": [ 114.939591660000005, 30.8953035000000007 ] } },
{ "type": "Feature", "properties": { "gml_id": "layer_scientific_pt.220800", "Name": "贝乐萌儿童成长中心", "pyname": "blmetczzx", "kind": "A709", "zipcode": "", "telephone": "", "display_x": "114.27164", "display_y": "30.59805", "side": "L", "address": "新华路404号宏元商务大厦14层", "mpLayer": 0 }, "geometry": { "type": "Point", "coordinates": [ 114.266211119999994, 30.6004941499999994 ] } },
{ "type": "Feature", "properties": { "gml_id": "layer_scientific_pt.220801", "Name": "学大教育科技（北京）有限公司武汉", "pyname": "xdjykj(bj)yxgswhfgs", "kind": "A709", "zipcode": "", "telephone": "027-82740382", "display_x": "114.30517", "display_y": "30.6072", "side": "L", "address": "解放大道1328号中原大厦9层E／F／G／H", "mpLayer": 0 }, "geometry": { "type": "Point", "coordinates": [ 114.299729279999994, 30.6096125400000005 ] } },
{ "type": "Feature", "properties": { "gml_id": "layer_scientific_pt.220804", "Name": "升华教育", "pyname": "shjy", "kind": "A709", "zipcode": "", "telephone": "15972033947", "display_x": "114.31845", "display_y": "30.35282", "side": "R", "address": "熊廷弼街96附28", "mpLayer": 0 }, "geometry": { "type": "Point", "coordinates": [ 114.313010759999997, 30.3552791100000015 ] } },
{ "type": "Feature", "properties": { "gml_id": "layer_scientific_pt.220805", "Name": "武汉新力量培训学校", "pyname": "whxllpxxx", "kind": "A709", "zipcode": "", "telephone": "", "display_x": "114.31847", "display_y": "30.35227", "side": "R", "address": "", "mpLayer": 0 }, "geometry": { "type": "Point", "coordinates": [ 114.313030740000002, 30.3547291699999988 ] } },
{ "type": "Feature", "properties": { "gml_id": "layer_scientific_pt.220806", "Name": "武汉市江夏区博学培训学校", "pyname": "whsjxqbxpxxx", "kind": "A709", "zipcode": "", "telephone": "", "display_x": "114.31847", "display_y": "30.35227", "side": "R", "address": "", "mpLayer": 0 }, "geometry": { "type": "Point", "coordinates": [ 114.313030740000002, 30.3547291699999988 ] } },
{ "type": "Feature", "properties": { "gml_id": "layer_scientific_pt.220808", "Name": "汉阳区小天才幼儿园", "pyname": "hyqxtcyey", "kind": "A701", "zipcode": "", "telephone": "13871094968", "display_x": "114.22315", "display_y": "30.55214", "side": "L", "address": "中兴街", "mpLayer": 0 }, "geometry": { "type": "Point", "coordinates": [ 114.217687799999993, 30.5545962200000005 ] } },
{ "type": "Feature", "properties": { "gml_id": "layer_scientific_pt.220814", "Name": "小太阳亲子早教中心罗七路店", "pyname": "xtyqzzjzxlqld", "kind": "A709", "zipcode": "", "telephone": "18971196828", "display_x": "114.22818", "display_y": "30.55856", "side": "L", "address": "银海培训城3楼", "mpLayer": 0 }, "geometry": { "type": "Point", "coordinates": [ 114.222724920000005, 30.5610177599999986 ] } },
{ "type": "Feature", "properties": { "gml_id": "layer_scientific_pt.220816", "Name": "爱德英语", "pyname": "adyy", "kind": "A709", "zipcode": "", "telephone": "027-84643338", "display_x": "114.22484", "display_y": "30.55041", "side": "R", "address": "七里二村165附15", "mpLayer": 0 }, "geometry": { "type": "Point", "coordinates": [ 114.219380700000002, 30.5528683500000007 ] } },
{ "type": "Feature", "properties": { "gml_id": "layer_scientific_pt.220817", "Name": "晨光幼儿园", "pyname": "cgyey", "kind": "A701", "zipcode": "", "telephone": "027-84875069", "display_x": "114.22626", "display_y": "30.55932", "side": "R", "address": "", "mpLayer": 0 }, "geometry": { "type": "Point", "coordinates": [ 114.220801620000003, 30.561775879999999 ] } },
{ "type": "Feature", "properties": { "gml_id": "layer_scientific_pt.220818", "Name": "武汉奕星艺术学校", "pyname": "whyxysxx", "kind": "A709", "zipcode": "", "telephone": "027-84610206", "display_x": "114.22536", "display_y": "30.55839", "side": "L", "address": "汉阳大道646", "mpLayer": 0 }, "geometry": { "type": "Point", "coordinates": [ 114.219900359999997, 30.5608454999999992 ] } },
{ "type": "Feature", "properties": { "gml_id": "layer_scientific_pt.220820", "Name": "奓山街中心幼儿园", "pyname": "zsjzxyey", "kind": "A701", "zipcode": "", "telephone": "", "display_x": "114.02111", "display_y": "30.44782", "side": "L", "address": "车站南路143", "mpLayer": 0 }, "geometry": { "type": "Point", "coordinates": [ 114.015478860000002, 30.4502859500000014 ] } },
{ "type": "Feature", "properties": { "gml_id": "layer_scientific_pt.220821", "Name": "新乔幼儿园", "pyname": "xqyey", "kind": "A701", "zipcode": "", "telephone": "", "display_x": "114.38716", "display_y": "30.46546", "side": "R", "address": "龙城路3", "mpLayer": 0 }, "geometry": { "type": "Point", "coordinates": [ 114.381626400000002, 30.4677896399999995 ] } },
{ "type": "Feature", "properties": { "gml_id": "layer_scientific_pt.220822", "Name": "IT新时空教育中心", "pyname": "ixskjyzx", "kind": "A709", "zipcode": "", "telephone": "027-87385360", "display_x": "114.34889", "display_y": "30.51386", "side": "L", "address": "洪兴巷", "mpLayer": 0 }, "geometry": { "type": "Point", "coordinates": [ 114.343395299999997, 30.5162300299999991 ] } },
{ "type": "Feature", "properties": { "gml_id": "layer_scientific_pt.220823", "Name": "邾城三小", "pyname": "zcsx", "kind": "A702", "zipcode": "", "telephone": "", "display_x": "114.80533", "display_y": "30.85076", "side": "R", "address": "江夏大街", "mpLayer": 0 }, "geometry": { "type": "Point", "coordinates": [ 114.800097960000002, 30.8531321100000007 ] } },
{ "type": "Feature", "properties": { "gml_id": "layer_scientific_pt.220830", "Name": "湖北经济学院滨湖教学区继续教育学", "pyname": "hbjjxybhjxqjxjyxy", "kind": "A709", "zipcode": "430000", "telephone": "", "display_x": "114.42983", "display_y": "30.42127", "side": "L", "address": "湖北经济学院对面", "mpLayer": 0 }, "geometry": { "type": "Point", "coordinates": [ 114.424320420000001, 30.4236098599999991 ] } },
{ "type": "Feature", "properties": { "gml_id": "layer_scientific_pt.220831", "Name": "武汉商贸职业学院附属幼儿园", "pyname": "whsmzyxyfsyey", "kind": "A701", "zipcode": "", "telephone": "", "display_x": "114.46172", "display_y": "30.43416", "side": "L", "address": "武汉商贸职业学院内", "mpLayer": 0 }, "geometry": { "type": "Point", "coordinates": [ 114.456286259999999, 30.4365517700000012 ] } },
{ "type": "Feature", "properties": { "gml_id": "layer_scientific_pt.220832", "Name": "洪山区兰亭书画培训学校", "pyname": "hsqltshpxxx", "kind": "A709", "zipcode": "", "telephone": "", "display_x": "114.34269", "display_y": "30.51038", "side": "R", "address": "长江崇文广场3楼", "mpLayer": 0 }, "geometry": { "type": "Point", "coordinates": [ 114.337202579999996, 30.5127598499999984 ] } },
{ "type": "Feature", "properties": { "gml_id": "layer_scientific_pt.220841", "Name": "湖北省电力安全与高效重点实验室", "pyname": "hbsdlaqygxzdsys", "kind": "A880", "zipcode": "", "telephone": "", "display_x": "114.409", "display_y": "30.5099", "side": "R", "address": "华中科技大学内", "mpLayer": 0 }, "geometry": { "type": "Point", "coordinates": [ 114.403478399999997, 30.51222134 ] } },
{ "type": "Feature", "properties": { "gml_id": "layer_scientific_pt.220842", "Name": "华中科技大学－RTDS数字仿真中心", "pyname": "hzkjdx-rszfzzx", "kind": "A880", "zipcode": "", "telephone": "", "display_x": "114.409", "display_y": "30.5099", "side": "R", "address": "华中科技大学内", "mpLayer": 0 }, "geometry": { "type": "Point", "coordinates": [ 114.403478399999997, 30.51222134 ] } },
{ "type": "Feature", "properties": { "gml_id": "layer_scientific_pt.220843", "Name": "华中科技大学－电力安全与高效利用", "pyname": "hzkjdx-dlaqygxlyjybgczx", "kind": "A880", "zipcode": "", "telephone": "", "display_x": "114.409", "display_y": "30.5099", "side": "R", "address": "华中科技大学内", "mpLayer": 0 }, "geometry": { "type": "Point", "coordinates": [ 114.403478399999997, 30.51222134 ] } },
{ "type": "Feature", "properties": { "gml_id": "layer_scientific_pt.220844", "Name": "江汉大学学术交流中心", "pyname": "jhdxxsjlzx", "kind": "7480", "zipcode": "", "telephone": "027-84230596", "display_x": "114.16374", "display_y": "30.50877", "side": "R", "address": "三角湖路江汉大学", "mpLayer": 0 }, "geometry": { "type": "Point", "coordinates": [ 114.158125979999994, 30.5111436299999994 ] } },
{ "type": "Feature", "properties": { "gml_id": "layer_scientific_pt.220845", "Name": "常青实验小学四校区", "pyname": "cqsyxxsxq", "kind": "A702", "zipcode": "", "telephone": "027-83968882", "display_x": "114.23552", "display_y": "30.648", "side": "R", "address": "常青花园四小区", "mpLayer": 0 }, "geometry": { "type": "Point", "coordinates": [ 114.230067480000002, 30.6504269100000002 ] } },
{ "type": "Feature", "properties": { "gml_id": "layer_scientific_pt.220851", "Name": "湖北工业大学武汉凹伟能源科技有限", "pyname": "hbgydxwhawnykjyxgsgfgcy", "kind": "A880", "zipcode": "", "telephone": "", "display_x": "114.31", "display_y": "30.47743", "side": "R", "address": "湖北工业大学内", "mpLayer": 0 }, "geometry": { "type": "Point", "coordinates": [ 114.304562820000001, 30.4798772299999996 ] } },
{ "type": "Feature", "properties": { "gml_id": "layer_scientific_pt.220852", "Name": "信达驾校张家湾训练场", "pyname": "xdjxzjwxlc", "kind": "A706", "zipcode": "430000", "telephone": "18972888609", "display_x": "114.2815", "display_y": "30.4867", "side": "R", "address": "鑫宇花园路", "mpLayer": 0 }, "geometry": { "type": "Point", "coordinates": [ 114.276088979999997, 30.4891833199999986 ] } },
{ "type": "Feature", "properties": { "gml_id": "layer_scientific_pt.220853", "Name": "育才驾校总部基地", "pyname": "ycjxzbjd", "kind": "A706", "zipcode": "", "telephone": "", "display_x": "114.33407", "display_y": "30.49083", "side": "L", "address": "书城路", "mpLayer": 0 }, "geometry": { "type": "Point", "coordinates": [ 114.328596959999999, 30.4932306599999983 ] } },
{ "type": "Feature", "properties": { "gml_id": "layer_scientific_pt.220854", "Name": "湖北工业大学分析测试中心", "pyname": "hbgydxfxcszx", "kind": "A880", "zipcode": "", "telephone": "", "display_x": "114.30965", "display_y": "30.47971", "side": "R", "address": "湖北工业大学内", "mpLayer": 0 }, "geometry": { "type": "Point", "coordinates": [ 114.304212899999996, 30.4821571099999993 ] } },
{ "type": "Feature", "properties": { "gml_id": "layer_scientific_pt.220865", "Name": "武汉市学思行教育", "pyname": "whsxshjy", "kind": "A709", "zipcode": "430071", "telephone": "027-87810321", "display_x": "114.33879", "display_y": "30.55096", "side": "L", "address": "中北路姚家岭114号景天楼1－3－2", "mpLayer": 0 }, "geometry": { "type": "Point", "coordinates": [ 114.333304139999996, 30.5533331100000005 ] } },
{ "type": "Feature", "properties": { "gml_id": "layer_scientific_pt.220866", "Name": "武汉市金鹤园学校", "pyname": "whsjhyxx", "kind": "A702", "zipcode": "", "telephone": "", "display_x": "114.37742", "display_y": "30.60841", "side": "R", "address": "金鹤园内", "mpLayer": 0 }, "geometry": { "type": "Point", "coordinates": [ 114.371884620000003, 30.6107054599999984 ] } },
{ "type": "Feature", "properties": { "gml_id": "layer_scientific_pt.220867", "Name": "湖北大学知行学院西门", "pyname": "hbdxzxxyxm", "kind": "A700", "zipcode": "", "telephone": "", "display_x": "114.36987", "display_y": "30.68806", "side": "L", "address": "新建村1", "mpLayer": 0 }, "geometry": { "type": "Point", "coordinates": [ 114.364329119999994, 30.6903246799999998 ] } },
{ "type": "Feature", "properties": { "gml_id": "layer_scientific_pt.220868", "Name": "华中农业大学附属学校", "pyname": "hznydxfsxx", "kind": "A702", "zipcode": "", "telephone": "027-87287003", "display_x": "114.35147", "display_y": "30.47354", "side": "R", "address": "南湖大道66号华中农业大学", "mpLayer": 0 }, "geometry": { "type": "Point", "coordinates": [ 114.345973259999994, 30.4759157000000016 ] } },
{ "type": "Feature", "properties": { "gml_id": "layer_scientific_pt.220871", "Name": "三加三艺术工作室", "pyname": "sjsysgzs", "kind": "A709", "zipcode": "", "telephone": "15927167526", "display_x": "114.31991", "display_y": "30.65056", "side": "L", "address": "安居路81", "mpLayer": 0 }, "geometry": { "type": "Point", "coordinates": [ 114.314445180000007, 30.6529290000000003 ] } },
{ "type": "Feature", "properties": { "gml_id": "layer_scientific_pt.220873", "Name": "文星教育", "pyname": "wxjy", "kind": "A709", "zipcode": "", "telephone": "027-88025756", "display_x": "114.31694", "display_y": "30.51306", "side": "L", "address": "瑞安街147", "mpLayer": 0 }, "geometry": { "type": "Point", "coordinates": [ 114.311488859999997, 30.5154842399999993 ] } },
{ "type": "Feature", "properties": { "gml_id": "layer_scientific_pt.220874", "Name": "武钢白玉山艺术幼儿园", "pyname": "wgbysysyey", "kind": "A701", "zipcode": "", "telephone": "", "display_x": "114.48839", "display_y": "30.60632", "side": "R", "address": "康美路12", "mpLayer": 0 }, "geometry": { "type": "Point", "coordinates": [ 114.483029579999993, 30.6087241100000007 ] } },
{ "type": "Feature", "properties": { "gml_id": "layer_scientific_pt.220875", "Name": "武汉轻工大学常青花园东校区北门", "pyname": "whqgdxcqhydxqbm", "kind": "A700", "zipcode": "430023", "telephone": "027-83955620", "display_x": "114.23748", "display_y": "30.63856", "side": "N", "address": "常青花园", "mpLayer": 0 }, "geometry": { "type": "Point", "coordinates": [ 114.232033079999994, 30.6409939199999997 ] } },
{ "type": "Feature", "properties": { "gml_id": "layer_scientific_pt.220876", "Name": "武汉大学工学部东北门", "pyname": "whdxgxbdbm", "kind": "A700", "zipcode": "", "telephone": "027-68752547", "display_x": "114.36603", "display_y": "30.5453", "side": "L", "address": "东湖南路中科院水生所附近", "mpLayer": 0 }, "geometry": { "type": "Point", "coordinates": [ 114.360510419999997, 30.5476321499999983 ] } },
{ "type": "Feature", "properties": { "gml_id": "layer_scientific_pt.220877", "Name": "武汉大学凌波门", "pyname": "whdxlbm", "kind": "A700", "zipcode": "", "telephone": "", "display_x": "114.3706", "display_y": "30.54332", "side": "R", "address": "东湖南路中科院水生所附近", "mpLayer": 0 }, "geometry": { "type": "Point", "coordinates": [ 114.365074859999993, 30.5456457599999993 ] } },
{ "type": "Feature", "properties": { "gml_id": "layer_scientific_pt.220878", "Name": "快乐琴键音乐培训中心", "pyname": "klqjyypxzx", "kind": "A709", "zipcode": "", "telephone": "027-87789303", "display_x": "114.41553", "display_y": "30.48944", "side": "L", "address": "关山大道369附74", "mpLayer": 0 }, "geometry": { "type": "Point", "coordinates": [ 114.410019059999996, 30.4917723500000015 ] } },
{ "type": "Feature", "properties": { "gml_id": "layer_scientific_pt.220879", "Name": "东方日出艺术双语幼儿园", "pyname": "dfrcyssyyey", "kind": "A701", "zipcode": "", "telephone": "13407176265", "display_x": "114.18786", "display_y": "30.5679", "side": "L", "address": "汉阳大道昌南花园", "mpLayer": 0 }, "geometry": { "type": "Point", "coordinates": [ 114.182309700000005, 30.5702981600000001 ] } },
{ "type": "Feature", "properties": { "gml_id": "layer_scientific_pt.220880", "Name": "商业幼儿园", "pyname": "syyey", "kind": "A701", "zipcode": "", "telephone": "", "display_x": "114.26855", "display_y": "30.54673", "side": "L", "address": "西大街86", "mpLayer": 0 }, "geometry": { "type": "Point", "coordinates": [ 114.263118000000006, 30.5491879399999995 ] } },
{ "type": "Feature", "properties": { "gml_id": "layer_scientific_pt.220887", "Name": "东西湖区老年大学西门", "pyname": "dxhqlndxxm", "kind": "A709", "zipcode": "", "telephone": "", "display_x": "114.13971", "display_y": "30.62549", "side": "L", "address": "望丰村121号附近", "mpLayer": 0 }, "geometry": { "type": "Point", "coordinates": [ 114.134024879999998, 30.6277836800000003 ] } },
{ "type": "Feature", "properties": { "gml_id": "layer_scientific_pt.220890", "Name": "康乐幼儿园", "pyname": "klyey", "kind": "A701", "zipcode": "", "telephone": "027-69609822", "display_x": "114.03866", "display_y": "30.57426", "side": "R", "address": "", "mpLayer": 0 }, "geometry": { "type": "Point", "coordinates": [ 114.032977740000007, 30.5766398300000013 ] } },
{ "type": "Feature", "properties": { "gml_id": "layer_scientific_pt.220895", "Name": "同心小学", "pyname": "txxx", "kind": "A702", "zipcode": "", "telephone": "", "display_x": "113.94085", "display_y": "30.62625", "side": "R", "address": "", "mpLayer": 0 }, "geometry": { "type": "Point", "coordinates": [ 113.935379400000002, 30.6288625500000009 ] } },
{ "type": "Feature", "properties": { "gml_id": "layer_scientific_pt.220896", "Name": "黄陂李集小学", "pyname": "hpljxx", "kind": "A702", "zipcode": "", "telephone": "", "display_x": "114.23575", "display_y": "31.00902", "side": "L", "address": "", "mpLayer": 0 }, "geometry": { "type": "Point", "coordinates": [ 114.230271779999995, 31.0112554100000004 ] } },
{ "type": "Feature", "properties": { "gml_id": "layer_scientific_pt.220897", "Name": "东西湖径河办事处成人文化学校", "pyname": "dxhjhbsccrwhxx", "kind": "A709", "zipcode": "", "telephone": "", "display_x": "114.16191", "display_y": "30.6783", "side": "R", "address": "", "mpLayer": 0 }, "geometry": { "type": "Point", "coordinates": [ 114.156277560000007, 30.6806056200000015 ] } },
{ "type": "Feature", "properties": { "gml_id": "layer_scientific_pt.220899", "Name": "启航英语培训", "pyname": "qhyypx", "kind": "A709", "zipcode": "", "telephone": "15071108827", "display_x": "114.79956", "display_y": "30.83365", "side": "R", "address": "衡州大道52", "mpLayer": 0 }, "geometry": { "type": "Point", "coordinates": [ 114.794323019999993, 30.8360259499999998 ] } },
{ "type": "Feature", "properties": { "gml_id": "layer_scientific_pt.220900", "Name": "杨裴小学", "pyname": "ypxx", "kind": "A702", "zipcode": "", "telephone": "", "display_x": "114.5647", "display_y": "30.78288", "side": "R", "address": "", "mpLayer": 0 }, "geometry": { "type": "Point", "coordinates": [ 114.55957746, 30.7853978899999987 ] } },
{ "type": "Feature", "properties": { "gml_id": "layer_scientific_pt.220906", "Name": "武汉市能源监督检测所", "pyname": "whsnyjdjcs", "kind": "A880", "zipcode": "", "telephone": "", "display_x": "114.2695", "display_y": "30.54961", "side": "R", "address": "汉阳大道119", "mpLayer": 0 }, "geometry": { "type": "Point", "coordinates": [ 114.26406858, 30.5520670400000007 ] } },
{ "type": "Feature", "properties": { "gml_id": "layer_scientific_pt.220916", "Name": "武江崇仁汉滨小学", "pyname": "wjcrhbxx", "kind": "A702", "zipcode": "", "telephone": "", "display_x": "114.20264", "display_y": "30.58845", "side": "R", "address": "古田三路1", "mpLayer": 0 }, "geometry": { "type": "Point", "coordinates": [ 114.197128739999997, 30.5908657700000006 ] } },
{ "type": "Feature", "properties": { "gml_id": "layer_scientific_pt.220923", "Name": "昌平武道馆", "pyname": "cpwdg", "kind": "A709", "zipcode": "", "telephone": "027-87950109", "display_x": "114.31669", "display_y": "30.35187", "side": "L", "address": "四贤路附近", "mpLayer": 0 }, "geometry": { "type": "Point", "coordinates": [ 114.31125342, 30.3543323600000008 ] } },
{ "type": "Feature", "properties": { "gml_id": "layer_scientific_pt.220924", "Name": "惟美美校", "pyname": "wmmx", "kind": "A709", "zipcode": "", "telephone": "", "display_x": "114.31304", "display_y": "30.35099", "side": "R", "address": "熊廷弼街", "mpLayer": 0 }, "geometry": { "type": "Point", "coordinates": [ 114.307608779999995, 30.3534590400000006 ] } },
{ "type": "Feature", "properties": { "gml_id": "layer_scientific_pt.220925", "Name": "北京师范大学齐心京城幼儿园", "pyname": "bjsfdxqxjcyey", "kind": "A701", "zipcode": "", "telephone": "", "display_x": "114.33684", "display_y": "30.3535", "side": "R", "address": "", "mpLayer": 0 }, "geometry": { "type": "Point", "coordinates": [ 114.331373639999995, 30.3559262099999998 ] } },
{ "type": "Feature", "properties": { "gml_id": "layer_scientific_pt.220929", "Name": "名欣舞蹈", "pyname": "mxwd", "kind": "A709", "zipcode": "", "telephone": "027-84889963", "display_x": "114.22732", "display_y": "30.55603", "side": "R", "address": "麒麟路", "mpLayer": 0 }, "geometry": { "type": "Point", "coordinates": [ 114.221863979999995, 30.5584880900000009 ] } },
{ "type": "Feature", "properties": { "gml_id": "layer_scientific_pt.220930", "Name": "金音艺术后湖店", "pyname": "jyyshhd", "kind": "A709", "zipcode": "", "telephone": "13476003412", "display_x": "114.30035", "display_y": "30.64864", "side": "L", "address": "同安家园商业街1栋－14", "mpLayer": 0 }, "geometry": { "type": "Point", "coordinates": [ 114.294910139999999, 30.6510412499999987 ] } },
{ "type": "Feature", "properties": { "gml_id": "layer_scientific_pt.220932", "Name": "顶琇晶城幼儿园", "pyname": "dxjcyey", "kind": "A701", "zipcode": "", "telephone": "", "display_x": "114.27337", "display_y": "30.62089", "side": "R", "address": "发展大道299附28", "mpLayer": 0 }, "geometry": { "type": "Point", "coordinates": [ 114.267940920000001, 30.6233251700000011 ] } },
{ "type": "Feature", "properties": { "gml_id": "layer_scientific_pt.220933", "Name": "稚雅幼儿园", "pyname": "zyyey", "kind": "A701", "zipcode": "", "telephone": "", "display_x": "114.26262", "display_y": "30.62459", "side": "R", "address": "常青一路163", "mpLayer": 0 }, "geometry": { "type": "Point", "coordinates": [ 114.257193659999999, 30.6270319999999998 ] } },
{ "type": "Feature", "properties": { "gml_id": "layer_scientific_pt.220935", "Name": "阳逻三中东门", "pyname": "ylszdm", "kind": "A703", "zipcode": "", "telephone": "", "display_x": "114.57581", "display_y": "30.65508", "side": "L", "address": "", "mpLayer": 0 }, "geometry": { "type": "Point", "coordinates": [ 114.570721259999999, 30.6576786599999984 ] } },
{ "type": "Feature", "properties": { "gml_id": "layer_scientific_pt.220936", "Name": "小蝌蚪现代婴幼园", "pyname": "xkdxdyyy", "kind": "A701", "zipcode": "", "telephone": "", "display_x": "114.3566", "display_y": "30.61348", "side": "R", "address": "德平路与和平大道交叉处往西约250米", "mpLayer": 0 }, "geometry": { "type": "Point", "coordinates": [ 114.351082919999996, 30.6157989199999996 ] } },
{ "type": "Feature", "properties": { "gml_id": "layer_scientific_pt.220937", "Name": "华恒留学", "pyname": "hhlx", "kind": "A709", "zipcode": "", "telephone": "", "display_x": "114.33185", "display_y": "30.53592", "side": "R", "address": "中南路7号中商广场写字楼21层A座2116", "mpLayer": 0 }, "geometry": { "type": "Point", "coordinates": [ 114.326375760000005, 30.5383109899999994 ] } },
{ "type": "Feature", "properties": { "gml_id": "layer_scientific_pt.220945", "Name": "阳逻高中", "pyname": "ylgz", "kind": "A703", "zipcode": "", "telephone": "", "display_x": "114.58177", "display_y": "30.66364", "side": "L", "address": "高新街", "mpLayer": 0 }, "geometry": { "type": "Point", "coordinates": [ 114.576691319999995, 30.6662425700000014 ] } },
{ "type": "Feature", "properties": { "gml_id": "layer_scientific_pt.220948", "Name": "四季花城海丽达国际幼教中心中英文", "pyname": "sjhchldgjyjzxzywyey", "kind": "A701", "zipcode": "", "telephone": "027-83933866", "display_x": "114.20681", "display_y": "30.63456", "side": "R", "address": "", "mpLayer": 0 }, "geometry": { "type": "Point", "coordinates": [ 114.201303839999994, 30.6369625499999998 ] } },
{ "type": "Feature", "properties": { "gml_id": "layer_scientific_pt.220954", "Name": "湖北省实验动物研究中心", "pyname": "hbssydwyjzx", "kind": "A880", "zipcode": "", "telephone": "", "display_x": "114.37291", "display_y": "30.52346", "side": "L", "address": "卓刀泉北路6号", "mpLayer": 0 }, "geometry": { "type": "Point", "coordinates": [ 114.36738588, 30.5257913599999995 ] } },
{ "type": "Feature", "properties": { "gml_id": "layer_scientific_pt.220957", "Name": "武汉小太阳幼儿园", "pyname": "whxtyyey", "kind": "A701", "zipcode": "", "telephone": "027-86550967", "display_x": "114.37702", "display_y": "30.61299", "side": "R", "address": "大洲村226", "mpLayer": 0 }, "geometry": { "type": "Point", "coordinates": [ 114.371487900000005, 30.6152870899999989 ] } },
{ "type": "Feature", "properties": { "gml_id": "layer_scientific_pt.220958", "Name": "果果双语幼儿园", "pyname": "ggsyyey", "kind": "A701", "zipcode": "", "telephone": "13871513248", "display_x": "114.15271", "display_y": "30.50248", "side": "L", "address": "", "mpLayer": 0 }, "geometry": { "type": "Point", "coordinates": [ 114.147066600000002, 30.5048366100000017 ] } },
{ "type": "Feature", "properties": { "gml_id": "layer_scientific_pt.220959", "Name": "汉阳三中", "pyname": "hysz", "kind": "A703", "zipcode": "", "telephone": "", "display_x": "114.09", "display_y": "30.41626", "side": "L", "address": "", "mpLayer": 0 }, "geometry": { "type": "Point", "coordinates": [ 114.084269640000002, 30.4185975299999996 ] } },
{ "type": "Feature", "properties": { "gml_id": "layer_scientific_pt.220963", "Name": "万通电脑学校", "pyname": "wtdnxx", "kind": "A709", "zipcode": "", "telephone": "027-87126875", "display_x": "114.27125", "display_y": "30.61665", "side": "R", "address": "唐家墩路", "mpLayer": 0 }, "geometry": { "type": "Point", "coordinates": [ 114.265821239999994, 30.6190880099999987 ] } },
{ "type": "Feature", "properties": { "gml_id": "layer_scientific_pt.220965", "Name": "南湖驾校训练场", "pyname": "nhjxxlc", "kind": "A706", "zipcode": "", "telephone": "13072780135", "display_x": "114.33897", "display_y": "30.35101", "side": "R", "address": "中国地质大学江城学院附近", "mpLayer": 0 }, "geometry": { "type": "Point", "coordinates": [ 114.333500700000002, 30.353432810000001 ] } },
{ "type": "Feature", "properties": { "gml_id": "layer_scientific_pt.220966", "Name": "鸿欣驾校", "pyname": "hxjx", "kind": "A706", "zipcode": "", "telephone": "15527832780", "display_x": "114.33897", "display_y": "30.35101", "side": "R", "address": "中国地质大学江城学院附近", "mpLayer": 0 }, "geometry": { "type": "Point", "coordinates": [ 114.333500700000002, 30.353432810000001 ] } },
{ "type": "Feature", "properties": { "gml_id": "layer_scientific_pt.220967", "Name": "人和驾校训练场", "pyname": "rhjxxlc", "kind": "A706", "zipcode": "", "telephone": "", "display_x": "114.33897", "display_y": "30.35101", "side": "R", "address": "中国地质大学江城学院附近", "mpLayer": 0 }, "geometry": { "type": "Point", "coordinates": [ 114.333500700000002, 30.353432810000001 ] } },
{ "type": "Feature", "properties": { "gml_id": "layer_scientific_pt.220968", "Name": "物资驾校综合训练基地", "pyname": "wzjxzhxljd", "kind": "A706", "zipcode": "", "telephone": "18971420151", "display_x": "114.33897", "display_y": "30.35101", "side": "R", "address": "中国地质大学江城学院附近", "mpLayer": 0 }, "geometry": { "type": "Point", "coordinates": [ 114.333500700000002, 30.353432810000001 ] } },
{ "type": "Feature", "properties": { "gml_id": "layer_scientific_pt.220969", "Name": "绅宝驾校大型训练基地", "pyname": "sbjxdxxljd", "kind": "A706", "zipcode": "", "telephone": "18071427101", "display_x": "114.34088", "display_y": "30.35082", "side": "R", "address": "熊廷弼街", "mpLayer": 0 }, "geometry": { "type": "Point", "coordinates": [ 114.335407979999999, 30.35323949 ] } },
{ "type": "Feature", "properties": { "gml_id": "layer_scientific_pt.220971", "Name": "湖北省土壤调查测试中心", "pyname": "hbstrdccszx", "kind": "A880", "zipcode": "", "telephone": "", "display_x": "114.33851", "display_y": "30.48013", "side": "L", "address": "珞狮路312", "mpLayer": 0 }, "geometry": { "type": "Point", "coordinates": [ 114.333031079999998, 30.4825257000000001 ] } },
{ "type": "Feature", "properties": { "gml_id": "layer_scientific_pt.220972", "Name": "达标画室汉阳校区", "pyname": "dbhshyxq", "kind": "A709", "zipcode": "", "telephone": "18062529188", "display_x": "114.26527", "display_y": "30.54994", "side": "R", "address": "汉阳大道140号闽东国际3A写字楼708", "mpLayer": 0 }, "geometry": { "type": "Point", "coordinates": [ 114.25984038, 30.5524008900000013 ] } },
{ "type": "Feature", "properties": { "gml_id": "layer_scientific_pt.220979", "Name": "中铁大桥局集团公司中心实验室", "pyname": "ztdqjjtgszxsys", "kind": "A880", "zipcode": "", "telephone": "", "display_x": "114.23103", "display_y": "30.58647", "side": "L", "address": "建设大道103", "mpLayer": 0 }, "geometry": { "type": "Point", "coordinates": [ 114.225573240000003, 30.5889168200000015 ] } },
{ "type": "Feature", "properties": { "gml_id": "layer_scientific_pt.220990", "Name": "武汉市农业干部学校", "pyname": "whsnygbxx", "kind": "A708", "zipcode": "", "telephone": "", "display_x": "114.02743", "display_y": "30.6518", "side": "R", "address": "", "mpLayer": 0 }, "geometry": { "type": "Point", "coordinates": [ 114.021766619999994, 30.6541789700000002 ] } },
{ "type": "Feature", "properties": { "gml_id": "layer_scientific_pt.220991", "Name": "洲上小学", "pyname": "zsxx", "kind": "A702", "zipcode": "", "telephone": "027-89830091", "display_x": "114.66769", "display_y": "30.7946", "side": "R", "address": "", "mpLayer": 0 }, "geometry": { "type": "Point", "coordinates": [ 114.662539800000005, 30.7970727800000006 ] } },
{ "type": "Feature", "properties": { "gml_id": "layer_scientific_pt.220992", "Name": "仓埠街毕铺小学", "pyname": "cbjbpxx", "kind": "A702", "zipcode": "", "telephone": "", "display_x": "114.60648", "display_y": "30.75497", "side": "L", "address": "S109", "mpLayer": 0 }, "geometry": { "type": "Point", "coordinates": [ 114.601409099999998, 30.7575374900000007 ] } },
{ "type": "Feature", "properties": { "gml_id": "layer_scientific_pt.221000", "Name": "爱欣海虹锦都幼儿园", "pyname": "axhhjdyey", "kind": "A701", "zipcode": "", "telephone": "027-82268228", "display_x": "114.27935", "display_y": "30.61481", "side": "L", "address": "三眼桥北路95", "mpLayer": 0 }, "geometry": { "type": "Point", "coordinates": [ 114.273919079999999, 30.617242430000001 ] } },
{ "type": "Feature", "properties": { "gml_id": "layer_scientific_pt.221001", "Name": "武汉老年大学", "pyname": "whlndx", "kind": "A709", "zipcode": "", "telephone": "", "display_x": "114.27921", "display_y": "30.60587", "side": "L", "address": "香江路11", "mpLayer": 0 }, "geometry": { "type": "Point", "coordinates": [ 114.273779039999994, 30.6083055199999983 ] } },
{ "type": "Feature", "properties": { "gml_id": "layer_scientific_pt.221006", "Name": "柏泉中心学校", "pyname": "bqzxxx", "kind": "A702", "zipcode": "", "telephone": "", "display_x": "114.1289", "display_y": "30.72731", "side": "R", "address": "", "mpLayer": 0 }, "geometry": { "type": "Point", "coordinates": [ 114.123182400000005, 30.7295438400000016 ] } },
{ "type": "Feature", "properties": { "gml_id": "layer_scientific_pt.221007", "Name": "武汉创美职业培训学校", "pyname": "whcmzypxxx", "kind": "A709", "zipcode": "", "telephone": "", "display_x": "114.30948", "display_y": "30.63677", "side": "L", "address": "新江岸五村188", "mpLayer": 0 }, "geometry": { "type": "Point", "coordinates": [ 114.304030920000002, 30.6391627799999995 ] } },
{ "type": "Feature", "properties": { "gml_id": "layer_scientific_pt.221008", "Name": "金钥匙教育青山总部", "pyname": "jysjyqszb", "kind": "A709", "zipcode": "", "telephone": "027-86851696", "display_x": "114.39139", "display_y": "30.63389", "side": "R", "address": "和平大道1284中银大厦22楼", "mpLayer": 0 }, "geometry": { "type": "Point", "coordinates": [ 114.385844700000007, 30.6361616900000016 ] } },
{ "type": "Feature", "properties": { "gml_id": "layer_scientific_pt.221012", "Name": "华中科技大学历史研究所", "pyname": "hzkjdxlsyjs", "kind": "A880", "zipcode": "", "telephone": "", "display_x": "114.41799", "display_y": "30.5119", "side": "L", "address": "华中科技大学内", "mpLayer": 0 }, "geometry": { "type": "Point", "coordinates": [ 114.412477319999994, 30.51422496 ] } },
{ "type": "Feature", "properties": { "gml_id": "layer_scientific_pt.221015", "Name": "武汉市直属机关永红幼儿园", "pyname": "whszsjgyhyey", "kind": "A701", "zipcode": "", "telephone": "", "display_x": "114.25187", "display_y": "30.58425", "side": "R", "address": "建设大道445", "mpLayer": 0 }, "geometry": { "type": "Point", "coordinates": [ 114.246446579999997, 30.5867143800000001 ] } },
{ "type": "Feature", "properties": { "gml_id": "layer_scientific_pt.221016", "Name": "武汉大学人文社会科学研究院", "pyname": "whdxrwshkxyjy", "kind": "A880", "zipcode": "", "telephone": "", "display_x": "114.36783", "display_y": "30.54047", "side": "L", "address": "珞珈山武汉大学", "mpLayer": 0 }, "geometry": { "type": "Point", "coordinates": [ 114.362308979999995, 30.5428015399999992 ] } },
{ "type": "Feature", "properties": { "gml_id": "layer_scientific_pt.221017", "Name": "中建装饰设计研究院有限公司武汉照", "pyname": "zjzssjyjyyxgswhzmsjfy", "kind": "A880", "zipcode": "", "telephone": "", "display_x": "114.2681", "display_y": "30.55802", "side": "R", "address": "", "mpLayer": 0 }, "geometry": { "type": "Point", "coordinates": [ 114.262670159999999, 30.5604769500000018 ] } },
{ "type": "Feature", "properties": { "gml_id": "layer_scientific_pt.221018", "Name": "金摇篮儿童舞蹈艺术中心", "pyname": "jyletwdyszx", "kind": "A709", "zipcode": "", "telephone": "", "display_x": "114.26162", "display_y": "30.53977", "side": "L", "address": "国博大道", "mpLayer": 0 }, "geometry": { "type": "Point", "coordinates": [ 114.256189800000001, 30.5422351700000014 ] } },
{ "type": "Feature", "properties": { "gml_id": "layer_scientific_pt.221019", "Name": "巨人培优", "pyname": "jrpy", "kind": "A709", "zipcode": "", "telephone": "", "display_x": "114.26667", "display_y": "30.53358", "side": "R", "address": "鹦鹉大道", "mpLayer": 0 }, "geometry": { "type": "Point", "coordinates": [ 114.261234299999998, 30.5360394299999989 ] } },
{ "type": "Feature", "properties": { "gml_id": "layer_scientific_pt.221030", "Name": "益源培训学校附属幼儿园", "pyname": "yypxxxfsyey", "kind": "A701", "zipcode": "", "telephone": "", "display_x": "114.80271", "display_y": "30.83556", "side": "L", "address": "花园里460", "mpLayer": 0 }, "geometry": { "type": "Point", "coordinates": [ 114.797477520000001, 30.8379390300000011 ] } },
{ "type": "Feature", "properties": { "gml_id": "layer_scientific_pt.221031", "Name": "金色摇篮幼儿园", "pyname": "jsylyey", "kind": "A701", "zipcode": "", "telephone": "027-63679183", "display_x": "114.425", "display_y": "30.48941", "side": "N", "address": "光谷大道27附近", "mpLayer": 0 }, "geometry": { "type": "Point", "coordinates": [ 114.419498219999994, 30.4917464699999989 ] } },
{ "type": "Feature", "properties": { "gml_id": "layer_scientific_pt.221059", "Name": "华联毛衣编织职业培训学校", "pyname": "hlmybzzypxxx", "kind": "A709", "zipcode": "430000", "telephone": "027-85861271", "display_x": "114.27121", "display_y": "30.57139", "side": "R", "address": "利济北路51号附近", "mpLayer": 0 }, "geometry": { "type": "Point", "coordinates": [ 114.265780199999995, 30.573841680000001 ] } },
{ "type": "Feature", "properties": { "gml_id": "layer_scientific_pt.221060", "Name": "长江流域农林科学院", "pyname": "cjlynlkxy", "kind": "A880", "zipcode": "", "telephone": "", "display_x": "114.02342", "display_y": "30.45039", "side": "L", "address": "白鹤泉东街143", "mpLayer": 0 }, "geometry": { "type": "Point", "coordinates": [ 114.017782499999996, 30.45284865 ] } },
{ "type": "Feature", "properties": { "gml_id": "layer_scientific_pt.221061", "Name": "江岸区长江九鼎幼儿园", "pyname": "jaqcjjdyey", "kind": "A701", "zipcode": "", "telephone": "", "display_x": "114.32642", "display_y": "30.63231", "side": "L", "address": "徐州二村89", "mpLayer": 0 }, "geometry": { "type": "Point", "coordinates": [ 114.320946059999997, 30.6346744400000013 ] } },
{ "type": "Feature", "properties": { "gml_id": "layer_scientific_pt.221073", "Name": "武汉市文昌高级职业学校", "pyname": "whswcgjzyxx", "kind": "A708", "zipcode": "430000", "telephone": "027-88081998", "display_x": "114.30983", "display_y": "30.52236", "side": "L", "address": "中山路683号", "mpLayer": 0 }, "geometry": { "type": "Point", "coordinates": [ 114.30437886, 30.5247857399999987 ] } },
{ "type": "Feature", "properties": { "gml_id": "layer_scientific_pt.221087", "Name": "阳光在线幼儿园本部", "pyname": "ygzxyeybb", "kind": "A701", "zipcode": "", "telephone": "027-87776891", "display_x": "114.40349", "display_y": "30.49646", "side": "L", "address": "雄楚大道998", "mpLayer": 0 }, "geometry": { "type": "Point", "coordinates": [ 114.397965540000001, 30.4987840199999987 ] } },
{ "type": "Feature", "properties": { "gml_id": "layer_scientific_pt.221088", "Name": "东方金子塔儿童潜能培训学校", "pyname": "dfjztetqnpxxx", "kind": "A709", "zipcode": "", "telephone": "027-82807668", "display_x": "114.288", "display_y": "30.58612", "side": "R", "address": "京汉大道858", "mpLayer": 0 }, "geometry": { "type": "Point", "coordinates": [ 114.282566279999998, 30.5885551500000012 ] } },
{ "type": "Feature", "properties": { "gml_id": "layer_scientific_pt.221096", "Name": "先锋教育", "pyname": "xfjy", "kind": "A709", "zipcode": "", "telephone": "", "display_x": "114.30108", "display_y": "30.55114", "side": "L", "address": "解放路468", "mpLayer": 0 }, "geometry": { "type": "Point", "coordinates": [ 114.295628879999995, 30.5535628800000012 ] } },
{ "type": "Feature", "properties": { "gml_id": "layer_scientific_pt.221097", "Name": "艺笔艺画", "pyname": "ybyh", "kind": "A709", "zipcode": "", "telephone": "18702745718", "display_x": "114.15837", "display_y": "30.49968", "side": "L", "address": "", "mpLayer": 0 }, "geometry": { "type": "Point", "coordinates": [ 114.152741280000001, 30.5020462099999996 ] } },
{ "type": "Feature", "properties": { "gml_id": "layer_scientific_pt.221098", "Name": "大自然创意美术活动基地", "pyname": "dzrcymshdjd", "kind": "A709", "zipcode": "", "telephone": "15927128444", "display_x": "114.16179", "display_y": "30.50557", "side": "R", "address": "三角洲路9附30", "mpLayer": 0 }, "geometry": { "type": "Point", "coordinates": [ 114.156170459999998, 30.5079408900000004 ] } },
{ "type": "Feature", "properties": { "gml_id": "layer_scientific_pt.221102", "Name": "武汉市农科院农科所", "pyname": "whsnkynks", "kind": "A880", "zipcode": "430311", "telephone": "", "display_x": "114.46592", "display_y": "30.7116", "side": "L", "address": "刘大公路", "mpLayer": 0 }, "geometry": { "type": "Point", "coordinates": [ 114.460473239999999, 30.7138982399999989 ] } },
{ "type": "Feature", "properties": { "gml_id": "layer_scientific_pt.221111", "Name": "黄陂区石门小学", "pyname": "hpqsmxx", "kind": "A702", "zipcode": "", "telephone": "", "display_x": "114.29774", "display_y": "31.15174", "side": "R", "address": "天才街", "mpLayer": 0 }, "geometry": { "type": "Point", "coordinates": [ 114.292259999999999, 31.1538716999999998 ] } },
{ "type": "Feature", "properties": { "gml_id": "layer_scientific_pt.221112", "Name": "武汉彼得森培训学校", "pyname": "whbdspxxx", "kind": "A709", "zipcode": "", "telephone": "027-50655077", "display_x": "114.37597", "display_y": "30.51739", "side": "L", "address": "珞喻路446号洪山科技创业中心B座5楼501", "mpLayer": 0 }, "geometry": { "type": "Point", "coordinates": [ 114.370443179999995, 30.5197193300000009 ] } },
{ "type": "Feature", "properties": { "gml_id": "layer_scientific_pt.221114", "Name": "伯牙琴行江城学院店", "pyname": "byqhjcxyd", "kind": "A709", "zipcode": "", "telephone": "027-81825663", "display_x": "114.33291", "display_y": "30.34719", "side": "L", "address": "学府路112", "mpLayer": 0 }, "geometry": { "type": "Point", "coordinates": [ 114.32745018, 30.3496242800000005 ] } },
{ "type": "Feature", "properties": { "gml_id": "layer_scientific_pt.221115", "Name": "江夏区老年书画研究会", "pyname": "jxqlnshyjh", "kind": "A880", "zipcode": "430200", "telephone": "", "display_x": "114.31435", "display_y": "30.34505", "side": "R", "address": "中兴街71", "mpLayer": 0 }, "geometry": { "type": "Point", "coordinates": [ 114.308917739999998, 30.3475176900000001 ] } },
{ "type": "Feature", "properties": { "gml_id": "layer_scientific_pt.221120", "Name": "航空幼儿园", "pyname": "hkyey", "kind": "A701", "zipcode": "430302", "telephone": "027-61713122", "display_x": "114.22075", "display_y": "30.80031", "side": "L", "address": "育才街62", "mpLayer": 0 }, "geometry": { "type": "Point", "coordinates": [ 114.215263019999995, 30.8026518299999985 ] } },
{ "type": "Feature", "properties": { "gml_id": "layer_scientific_pt.221125", "Name": "天英实战网络营销学院", "pyname": "tyszwlyxxy", "kind": "A709", "zipcode": "", "telephone": "", "display_x": "114.39973", "display_y": "30.51213", "side": "L", "address": "鲁磨路243号国光大厦B座23楼2301", "mpLayer": 0 }, "geometry": { "type": "Point", "coordinates": [ 114.394198500000002, 30.5144460500000001 ] } },
{ "type": "Feature", "properties": { "gml_id": "layer_scientific_pt.221133", "Name": "堤角小学B区", "pyname": "djxxbq", "kind": "A702", "zipcode": "", "telephone": "", "display_x": "114.34245", "display_y": "30.66318", "side": "L", "address": "江北路11", "mpLayer": 0 }, "geometry": { "type": "Point", "coordinates": [ 114.33694878, 30.6655013700000012 ] } },
{ "type": "Feature", "properties": { "gml_id": "layer_scientific_pt.221134", "Name": "江岸区小太阳幼儿园", "pyname": "jaqxtyyey", "kind": "A701", "zipcode": "", "telephone": "15202745811", "display_x": "114.34464", "display_y": "30.66028", "side": "L", "address": "堤角前街3号8单元", "mpLayer": 0 }, "geometry": { "type": "Point", "coordinates": [ 114.339135600000006, 30.662598599999999 ] } },
{ "type": "Feature", "properties": { "gml_id": "layer_scientific_pt.221147", "Name": "江汉区武汉关小学", "pyname": "jhqwhgxx", "kind": "A702", "zipcode": "430000", "telephone": "027-82834507", "display_x": "114.28948", "display_y": "30.57562", "side": "L", "address": "洪益巷114", "mpLayer": 0 }, "geometry": { "type": "Point", "coordinates": [ 114.284045160000005, 30.5780561099999986 ] } },
{ "type": "Feature", "properties": { "gml_id": "layer_scientific_pt.221150", "Name": "湖北大学附属小学", "pyname": "hbdxfsxx", "kind": "A702", "zipcode": "", "telephone": "", "display_x": "114.33648", "display_y": "30.57213", "side": "L", "address": "湖北大学内", "mpLayer": 0 }, "geometry": { "type": "Point", "coordinates": [ 114.330994919999995, 30.5744990399999992 ] } },
{ "type": "Feature", "properties": { "gml_id": "layer_scientific_pt.221158", "Name": "创新幼儿园", "pyname": "cxyey", "kind": "A701", "zipcode": "", "telephone": "13545072218", "display_x": "114.32077", "display_y": "30.3546", "side": "L", "address": "沙羡街20", "mpLayer": 0 }, "geometry": { "type": "Point", "coordinates": [ 114.315327179999997, 30.357054680000001 ] } },
{ "type": "Feature", "properties": { "gml_id": "layer_scientific_pt.221166", "Name": "北京龙文教育永清校区", "pyname": "bjlwjyyqxq", "kind": "A709", "zipcode": "", "telephone": "027-82737566", "display_x": "114.3084", "display_y": "30.60336", "side": "R", "address": "山海关路6", "mpLayer": 0 }, "geometry": { "type": "Point", "coordinates": [ 114.302955240000003, 30.6057687799999982 ] } },
{ "type": "Feature", "properties": { "gml_id": "layer_scientific_pt.221169", "Name": "八月迷琴", "pyname": "bymq", "kind": "A709", "zipcode": "", "telephone": "", "display_x": "114.13298", "display_y": "30.62521", "side": "R", "address": "环山路79", "mpLayer": 0 }, "geometry": { "type": "Point", "coordinates": [ 114.127281179999997, 30.6274961700000006 ] } },
{ "type": "Feature", "properties": { "gml_id": "layer_scientific_pt.221170", "Name": "神威驾校场内训练基地", "pyname": "swjjcnxljd", "kind": "A706", "zipcode": "", "telephone": "13507120602", "display_x": "114.37417", "display_y": "30.41794", "side": "L", "address": "江夏大道", "mpLayer": 0 }, "geometry": { "type": "Point", "coordinates": [ 114.368646780000006, 30.4202923699999985 ] } },
{ "type": "Feature", "properties": { "gml_id": "layer_scientific_pt.221189", "Name": "武汉市光谷九峰第一小学", "pyname": "whsggjfdyxx", "kind": "A702", "zipcode": "", "telephone": "", "display_x": "114.486", "display_y": "30.50063", "side": "R", "address": "何刘路", "mpLayer": 0 }, "geometry": { "type": "Point", "coordinates": [ 114.480639539999999, 30.5030642000000007 ] } },
{ "type": "Feature", "properties": { "gml_id": "layer_scientific_pt.221190", "Name": "珞珈之音儿童乐园", "pyname": "ljzyetly", "kind": "A709", "zipcode": "", "telephone": "027-87506608", "display_x": "114.4126", "display_y": "30.48825", "side": "R", "address": "", "mpLayer": 0 }, "geometry": { "type": "Point", "coordinates": [ 114.407085240000001, 30.4905803400000011 ] } },
{ "type": "Feature", "properties": { "gml_id": "layer_scientific_pt.221191", "Name": "鑫谨训驾校训练基地", "pyname": "xjxjxxljd", "kind": "A706", "zipcode": "", "telephone": "", "display_x": "114.42822", "display_y": "30.46144", "side": "L", "address": "流芳大道13", "mpLayer": 0 }, "geometry": { "type": "Point", "coordinates": [ 114.422704199999998, 30.4637679900000009 ] } },
{ "type": "Feature", "properties": { "gml_id": "layer_scientific_pt.221194", "Name": "毕加索美术培训", "pyname": "bjsmspx", "kind": "A709", "zipcode": "", "telephone": "15802706822", "display_x": "114.34311", "display_y": "30.52743", "side": "L", "address": "石牌岭路", "mpLayer": 0 }, "geometry": { "type": "Point", "coordinates": [ 114.337621979999994, 30.5298055400000017 ] } },
{ "type": "Feature", "properties": { "gml_id": "layer_scientific_pt.221195", "Name": "武汉天然药物工程技术研究中心", "pyname": "whtrywgcjsyjzx", "kind": "A880", "zipcode": "430000", "telephone": "", "display_x": "114.26285", "display_y": "30.58195", "side": "R", "address": "", "mpLayer": 0 }, "geometry": { "type": "Point", "coordinates": [ 114.257423340000003, 30.5844062000000001 ] } },
{ "type": "Feature", "properties": { "gml_id": "layer_scientific_pt.221196", "Name": "华中科技大学同济医学院3号门", "pyname": "hzkjdxtjyxy3hm", "kind": "A700", "zipcode": "430000", "telephone": "", "display_x": "114.25758", "display_y": "30.58061", "side": "R", "address": "解放大道1095－34", "mpLayer": 0 }, "geometry": { "type": "Point", "coordinates": [ 114.252154739999995, 30.5830706899999996 ] } },
{ "type": "Feature", "properties": { "gml_id": "layer_scientific_pt.221197", "Name": "同济医院幼儿园", "pyname": "tjyyyey", "kind": "A701", "zipcode": "430000", "telephone": "", "display_x": "114.25805", "display_y": "30.58033", "side": "R", "address": "", "mpLayer": 0 }, "geometry": { "type": "Point", "coordinates": [ 114.252624539999999, 30.5827903799999987 ] } },
{ "type": "Feature", "properties": { "gml_id": "layer_scientific_pt.221198", "Name": "江城明珠驾校", "pyname": "jcmzjx", "kind": "A706", "zipcode": "", "telephone": "13659807692", "display_x": "114.33413", "display_y": "30.36515", "side": "R", "address": "", "mpLayer": 0 }, "geometry": { "type": "Point", "coordinates": [ 114.328666979999994, 30.3675791400000001 ] } },
{ "type": "Feature", "properties": { "gml_id": "layer_scientific_pt.221199", "Name": "永安中心小学", "pyname": "yazxxx", "kind": "A702", "zipcode": "", "telephone": "027-69303269", "display_x": "113.93811", "display_y": "30.4571", "side": "L", "address": "永安大街265", "mpLayer": 0 }, "geometry": { "type": "Point", "coordinates": [ 113.932655100000005, 30.4597723500000015 ] } },
{ "type": "Feature", "properties": { "gml_id": "layer_scientific_pt.221202", "Name": "中国海诚国际工程投资总院武汉轻工", "pyname": "zghcgjgctzzywhqgy", "kind": "A880", "zipcode": "430000", "telephone": "", "display_x": "114.30858", "display_y": "30.53203", "side": "R", "address": "首义路176", "mpLayer": 0 }, "geometry": { "type": "Point", "coordinates": [ 114.303120300000003, 30.5344468400000011 ] } },
{ "type": "Feature", "properties": { "gml_id": "layer_scientific_pt.221203", "Name": "金苹果幼儿园", "pyname": "jpgyey", "kind": "A701", "zipcode": "432200", "telephone": "", "display_x": "114.36834", "display_y": "30.87604", "side": "R", "address": "金明道21", "mpLayer": 0 }, "geometry": { "type": "Point", "coordinates": [ 114.36278274, 30.8782051700000011 ] } },
{ "type": "Feature", "properties": { "gml_id": "layer_scientific_pt.221204", "Name": "湖北创业技能培训学校", "pyname": "hbcyjnpxxx", "kind": "A709", "zipcode": "", "telephone": "027-87467600", "display_x": "114.36733", "display_y": "30.50998", "side": "R", "address": "卓刀泉南路31附34", "mpLayer": 0 }, "geometry": { "type": "Point", "coordinates": [ 114.361813620000007, 30.5123238000000008 ] } },
{ "type": "Feature", "properties": { "gml_id": "layer_scientific_pt.221205", "Name": "金苹果艺术幼儿园", "pyname": "jpgysyey", "kind": "A701", "zipcode": "", "telephone": "027-87467883", "display_x": "114.36733", "display_y": "30.50998", "side": "R", "address": "卓刀泉南路31附34", "mpLayer": 0 }, "geometry": { "type": "Point", "coordinates": [ 114.361813620000007, 30.5123238000000008 ] } },
{ "type": "Feature", "properties": { "gml_id": "layer_scientific_pt.221208", "Name": "张店幼儿园", "pyname": "zdyey", "kind": "A701", "zipcode": "", "telephone": "", "display_x": "114.74495", "display_y": "30.85087", "side": "L", "address": "", "mpLayer": 0 }, "geometry": { "type": "Point", "coordinates": [ 114.739673760000002, 30.8532028999999994 ] } },
{ "type": "Feature", "properties": { "gml_id": "layer_scientific_pt.221213", "Name": "深圳市宝安规划设计院武汉分院", "pyname": "szsbaghsjywhfy", "kind": "A880", "zipcode": "", "telephone": "", "display_x": "114.26367", "display_y": "30.59353", "side": "R", "address": "建设大道518号招银大厦7层", "mpLayer": 0 }, "geometry": { "type": "Point", "coordinates": [ 114.258243239999999, 30.5959819499999988 ] } },
{ "type": "Feature", "properties": { "gml_id": "layer_scientific_pt.221215", "Name": "谨训驾校腰路堤基地", "pyname": "jxjxyldjd", "kind": "A706", "zipcode": "", "telephone": "", "display_x": "114.26618", "display_y": "30.54174", "side": "R", "address": "鹦鹉大道212", "mpLayer": 0 }, "geometry": { "type": "Point", "coordinates": [ 114.26074758, 30.5442003200000016 ] } },
{ "type": "Feature", "properties": { "gml_id": "layer_scientific_pt.221216", "Name": "径河农场中心幼儿园", "pyname": "jhnczxyey", "kind": "A701", "zipcode": "", "telephone": "", "display_x": "114.16443", "display_y": "30.67692", "side": "R", "address": "十字南街64", "mpLayer": 0 }, "geometry": { "type": "Point", "coordinates": [ 114.158804399999994, 30.6792304199999997 ] } },
{ "type": "Feature", "properties": { "gml_id": "layer_scientific_pt.221219", "Name": "纸坊街何家湖小学", "pyname": "zfjhjhxx", "kind": "A702", "zipcode": "", "telephone": "027-81807902", "display_x": "114.25807", "display_y": "30.39817", "side": "R", "address": "G107", "mpLayer": 0 }, "geometry": { "type": "Point", "coordinates": [ 114.252667380000005, 30.4006886999999999 ] } },
{ "type": "Feature", "properties": { "gml_id": "layer_scientific_pt.221223", "Name": "青青幼儿世界艺术园", "pyname": "qqyesjysy", "kind": "A701", "zipcode": "", "telephone": "", "display_x": "114.3999", "display_y": "30.64323", "side": "L", "address": "红钢二街23", "mpLayer": 0 }, "geometry": { "type": "Point", "coordinates": [ 114.394347179999997, 30.6454879799999986 ] } },
{ "type": "Feature", "properties": { "gml_id": "layer_scientific_pt.221226", "Name": "兰剑驾校", "pyname": "ljjx", "kind": "A706", "zipcode": "", "telephone": "15327128070", "display_x": "114.14341", "display_y": "30.49802", "side": "N", "address": "", "mpLayer": 0 }, "geometry": { "type": "Point", "coordinates": [ 114.13774368, 30.5003636600000014 ] } },
{ "type": "Feature", "properties": { "gml_id": "layer_scientific_pt.221231", "Name": "武汉市第一初级中学", "pyname": "whsdycjzx", "kind": "A703", "zipcode": "", "telephone": "", "display_x": "114.24478", "display_y": "30.62665", "side": "L", "address": "常青五路9", "mpLayer": 0 }, "geometry": { "type": "Point", "coordinates": [ 114.239346479999995, 30.6290952899999986 ] } },
{ "type": "Feature", "properties": { "gml_id": "layer_scientific_pt.221234", "Name": "中国林业科学研究院湖北分院", "pyname": "zglykxyjyhbfy", "kind": "A880", "zipcode": "", "telephone": "", "display_x": "114.50718", "display_y": "30.50607", "side": "L", "address": "枫林路39", "mpLayer": 0 }, "geometry": { "type": "Point", "coordinates": [ 114.501898800000006, 30.5085647699999996 ] } },
{ "type": "Feature", "properties": { "gml_id": "layer_scientific_pt.221237", "Name": "江夏区农业科学研究所", "pyname": "jxqnykxyjs", "kind": "A880", "zipcode": "", "telephone": "", "display_x": "114.3251", "display_y": "30.3758", "side": "L", "address": "神龙港南街", "mpLayer": 0 }, "geometry": { "type": "Point", "coordinates": [ 114.31964988, 30.3782436500000017 ] } },
{ "type": "Feature", "properties": { "gml_id": "layer_scientific_pt.221238", "Name": "天才作坊梅南双语幼儿园", "pyname": "tczfmnsyyey", "kind": "A701", "zipcode": "", "telephone": "", "display_x": "114.37063", "display_y": "30.41135", "side": "L", "address": "", "mpLayer": 0 }, "geometry": { "type": "Point", "coordinates": [ 114.365110139999999, 30.4137078299999999 ] } },
{ "type": "Feature", "properties": { "gml_id": "layer_scientific_pt.221244", "Name": "武汉轻工大学金银湖校区东门", "pyname": "whqgdxjyhxqdm", "kind": "A700", "zipcode": "", "telephone": "027-83911672", "display_x": "114.22514", "display_y": "30.65244", "side": "N", "address": "环湖中路36", "mpLayer": 0 }, "geometry": { "type": "Point", "coordinates": [ 114.219671579999996, 30.6548578399999982 ] } },
{ "type": "Feature", "properties": { "gml_id": "layer_scientific_pt.221245", "Name": "黄陂区前川街第二幼儿园", "pyname": "hpqqcjdeyey", "kind": "A701", "zipcode": "", "telephone": "", "display_x": "114.36284", "display_y": "30.87077", "side": "L", "address": "板桥大道", "mpLayer": 0 }, "geometry": { "type": "Point", "coordinates": [ 114.357290579999997, 30.8729471900000014 ] } },